{
"type": "FeatureCollection",
"name": "sportstaetten",
"crs": { "type": "name", "properties": { "name": "urn:ogc:def:crs:OGC:1.3:CRS84" } },
"features": [
{ "type": "Feature", "properties": { "ID": 210, "Produkt": "Turn- und Sporthallen", "Teilprodukt": "Krafträume", "Name": "Sporthalle Berg Fidel", "Plz": 48153.0, "Strname": "Am Berg Fidel", "Hsnr": 51.0, "Rechtswert": 3405419.0, "Hochwert": 5755854.0 }, "geometry": { "type": "Point", "coordinates": [ 7.623919199088479, 51.928614294336306 ] } },
{ "type": "Feature", "properties": { "ID": 211, "Produkt": "Turn- und Sporthallen", "Teilprodukt": "Dreifachhallen", "Name": "Sporthalle Berg Fidel", "Plz": 48153.0, "Strname": "Am Berg Fidel", "Hsnr": 51.0, "Rechtswert": 3405419.0, "Hochwert": 5755854.0 }, "geometry": { "type": "Point", "coordinates": [ 7.623919199088479, 51.928614294336306 ] } },
{ "type": "Feature", "properties": { "ID": 212, "Produkt": "Sondersportanlagen", "Teilprodukt": "Skateanlagen", "Name": "Skaterpark Berg Fidel", "Plz": 48153.0, "Strname": "Am Berg Fidel", "Hsnr": 51.0, "Rechtswert": 3405419.0, "Hochwert": 5755854.0 }, "geometry": { "type": "Point", "coordinates": [ 7.623919199088479, 51.928614294336306 ] } },
{ "type": "Feature", "properties": { "ID": 213, "Produkt": "Bezirkssportanlage", "Teilprodukt": "überlassen", "Name": "Sportanlage Am Hohen Ufer", "Plz": 48167.0, "Strname": "Am Hohen Ufer", "Hsnr": 111.0, "Rechtswert": 3410100.0, "Hochwert": 5755839.0 }, "geometry": { "type": "Point", "coordinates": [ 7.691955971284583, 51.929254610922428 ] } },
{ "type": "Feature", "properties": { "ID": 214, "Produkt": "Sondersportanlagen", "Teilprodukt": "Bouleanlagen", "Name": "Sportanlage Am Hohen Ufer", "Plz": 48167.0, "Strname": "Am Hohen Ufer", "Hsnr": 111.0, "Rechtswert": 3410100.0, "Hochwert": 5755839.0 }, "geometry": { "type": "Point", "coordinates": [ 7.691955971284583, 51.929254610922428 ] } },
{ "type": "Feature", "properties": { "ID": 215, "Produkt": "Sondersportanlagen", "Teilprodukt": "Speckbrettanlagen", "Name": "Sportanlage Am Hohen Ufer", "Plz": 48167.0, "Strname": "Am Hohen Ufer", "Hsnr": 111.0, "Rechtswert": 3410100.0, "Hochwert": 5755839.0 }, "geometry": { "type": "Point", "coordinates": [ 7.691955971284583, 51.929254610922428 ] } },
{ "type": "Feature", "properties": { "ID": 216, "Produkt": "Sondersportanlagen", "Teilprodukt": "Beachvolleyballanlagen", "Name": "Sportanlage Gremmendorf", "Plz": 48167.0, "Strname": "Am Hohen Ufer", "Hsnr": 111.0, "Rechtswert": 3410100.0, "Hochwert": 5755839.0 }, "geometry": { "type": "Point", "coordinates": [ 7.691955971284583, 51.929254610922428 ] } },
{ "type": "Feature", "properties": { "ID": 217, "Produkt": "Turn- und Sporthallen", "Teilprodukt": "Zweifachhalle", "Name": "Gymnasium Paulinum", "Plz": 48143.0, "Strname": "Am Stadtgraben", "Hsnr": 30.0, "Rechtswert": 3405034.0, "Hochwert": 5759339.0 }, "geometry": { "type": "Point", "coordinates": [ 7.617362200475887, 51.959861046557378 ] } },
{ "type": "Feature", "properties": { "ID": 218, "Produkt": "Turn- und Sporthallen", "Teilprodukt": "Einfachhallen", "Name": "Nikolaischule Wolbeck", "Plz": 48167.0, "Strname": "Am Wigbold", "Hsnr": 11.0, "Rechtswert": 3412624.0, "Hochwert": 5754253.0 }, "geometry": { "type": "Point", "coordinates": [ 7.729042618325603, 51.915405581079661 ] } },
{ "type": "Feature", "properties": { "ID": 219, "Produkt": "Turn- und Sporthallen", "Teilprodukt": "Zweifachhalle", "Name": "Ludgerusschule Hiltrup", "Plz": 48165.0, "Strname": "An der Alten Kirche", "Hsnr": 161.0, "Rechtswert": 3405549.0, "Hochwert": 5753073.0 }, "geometry": { "type": "Point", "coordinates": [ 7.626570507327211, 51.903649239331592 ] } },
{ "type": "Feature", "properties": { "ID": 220, "Produkt": "Turn- und Sporthallen", "Teilprodukt": "Einfachhallen", "Name": "Pleisterschule", "Plz": 48155.0, "Strname": "An der Konradkirche", "Hsnr": 7.0, "Rechtswert": 3409197.0, "Hochwert": 5759655.0 }, "geometry": { "type": "Point", "coordinates": [ 7.677824821763752, 51.963395209032498 ] } },
{ "type": "Feature", "properties": { "ID": 221, "Produkt": "Turn- und Sporthallen", "Teilprodukt": "Dreifachhallen", "Name": "Pestalozzischule Gremmendorf", "Plz": 48167.0, "Strname": "Anton-Knubel-Weg", "Hsnr": 10.0, "Rechtswert": 3408399.0, "Hochwert": 5756079.0 }, "geometry": { "type": "Point", "coordinates": [ 7.667169842105515, 51.931133894674112 ] } },
{ "type": "Feature", "properties": { "ID": 222, "Produkt": "Bezirkssportanlage", "Teilprodukt": "überlassen", "Name": "Sportanlage Anton-Knubel-Weg", "Plz": 48167.0, "Strname": "Anton-Knubel-Weg", "Hsnr": 24.0, "Rechtswert": 3408537.0, "Hochwert": 5756024.0 }, "geometry": { "type": "Point", "coordinates": [ 7.669190217957123, 51.930662394345497 ] } },
{ "type": "Feature", "properties": { "ID": 223, "Produkt": "Turn- und Sporthallen", "Teilprodukt": "Einfachhallen", "Name": "Michaelschule, Halle1", "Plz": 48149.0, "Strname": "Appelbreistiege", "Hsnr": 40.0, "Rechtswert": 3402567.0, "Hochwert": 5760269.0 }, "geometry": { "type": "Point", "coordinates": [ 7.581220091385641, 51.967790346067055 ] } },
{ "type": "Feature", "properties": { "ID": 224, "Produkt": "Turn- und Sporthallen", "Teilprodukt": "Einfachhallen", "Name": "Michaelschule, Halle2", "Plz": 48149.0, "Strname": "Appelbreistiege", "Hsnr": 40.0, "Rechtswert": 3402567.0, "Hochwert": 5760269.0 }, "geometry": { "type": "Point", "coordinates": [ 7.581220091385641, 51.967790346067055 ] } },
{ "type": "Feature", "properties": { "ID": 225, "Produkt": "Bezirkssportanlage", "Teilprodukt": "nicht überlassen", "Name": "Sportanlage Arnheimweg", "Plz": 48161.0, "Strname": "Arnheimweg", "Hsnr": 40.0, "Rechtswert": 3402056.0, "Hochwert": 5760036.0 }, "geometry": { "type": "Point", "coordinates": [ 7.573853545762872, 51.965607191081602 ] } },
{ "type": "Feature", "properties": { "ID": 226, "Produkt": "Sondersportanlagen", "Teilprodukt": "Beachvolleyballanlagen", "Name": "Sportanlage Arnheimweg", "Plz": 48161.0, "Strname": "Arnheimweg", "Hsnr": 40.0, "Rechtswert": 3402056.0, "Hochwert": 5760036.0 }, "geometry": { "type": "Point", "coordinates": [ 7.573853545762872, 51.965607191081602 ] } },
{ "type": "Feature", "properties": { "ID": 227, "Produkt": "Sondersportanlagen", "Teilprodukt": "Speckbrettanlagen", "Name": "Sportanlage Arnheimweg", "Plz": 48161.0, "Strname": "Arnheimweg", "Hsnr": 40.0, "Rechtswert": 3402056.0, "Hochwert": 5760036.0 }, "geometry": { "type": "Point", "coordinates": [ 7.573853545762872, 51.965607191081602 ] } },
{ "type": "Feature", "properties": { "ID": 228, "Produkt": "Turn- und Sporthallen", "Teilprodukt": "Einfachhallen", "Name": "Marienschule Roxel", "Plz": 48161.0, "Strname": "Auf dem Dorn", "Hsnr": 17.0, "Rechtswert": 3399110.0, "Hochwert": 5758929.0 }, "geometry": { "type": "Point", "coordinates": [ 7.531328977085213, 51.955134934239993 ] } },
{ "type": "Feature", "properties": { "ID": 229, "Produkt": "Bezirkssportanlage", "Teilprodukt": "überlassen", "Name": "Sportanlage August-Schepers-Straße", "Plz": 48155.0, "Strname": "August-Schepers-Straße", "Hsnr": 20.0, "Rechtswert": 3407508.0, "Hochwert": 5758430.0 }, "geometry": { "type": "Point", "coordinates": [ 7.653587875984711, 51.952110401790677 ] } },
{ "type": "Feature", "properties": { "ID": 230, "Produkt": "Turn- und Sporthallen", "Teilprodukt": "Einfachhallen", "Name": "Erich-Klausener-", "Plz": 48151.0, "Strname": "Bismarckallee", "Hsnr": 55.0, "Rechtswert": 3404464.0, "Hochwert": 5758486.0 }, "geometry": { "type": "Point", "coordinates": [ 7.609309332003433, 51.952099437329444 ] } },
{ "type": "Feature", "properties": { "ID": 231, "Produkt": "Turn- und Sporthallen", "Teilprodukt": "Einfachhallen", "Name": "Paul-Gerhardt-Schule Hiltrup", "Plz": 48165.0, "Strname": "Bodelschwinghstraße", "Hsnr": 22.0, "Rechtswert": 3406872.0, "Hochwert": 5753372.0 }, "geometry": { "type": "Point", "coordinates": [ 7.645707102156048, 51.906558296868702 ] } },
{ "type": "Feature", "properties": { "ID": 232, "Produkt": "Turn- und Sporthallen", "Teilprodukt": "Gymnastikräume", "Name": "Paul-Gerhardt-Schule-Hiltrup", "Plz": 48165.0, "Strname": "Bodelschwinghstraße", "Hsnr": 22.0, "Rechtswert": 3406872.0, "Hochwert": 5753372.0 }, "geometry": { "type": "Point", "coordinates": [ 7.645707102156048, 51.906558296868702 ] } },
{ "type": "Feature", "properties": { "ID": 233, "Produkt": "Turn- und Sporthallen", "Teilprodukt": "Dreifachhallen", "Name": "Paul-Gerhardt-Schule-Hiltrup", "Plz": 48165.0, "Strname": "Bodelschwinghstraße", "Hsnr": 22.0, "Rechtswert": 3406872.0, "Hochwert": 5753372.0 }, "geometry": { "type": "Point", "coordinates": [ 7.645707102156048, 51.906558296868702 ] } },
{ "type": "Feature", "properties": { "ID": 234, "Produkt": "Turn- und Sporthallen", "Teilprodukt": "Einfachhallen", "Name": "Ratsgymnasium alte Halle", "Plz": 48147.0, "Strname": "Bohlweg", "Hsnr": 7.0, "Rechtswert": 3406468.0, "Hochwert": 5760094.0 }, "geometry": { "type": "Point", "coordinates": [ 7.638012410635754, 51.966887522638181 ] } },
{ "type": "Feature", "properties": { "ID": 235, "Produkt": "Turn- und Sporthallen", "Teilprodukt": "Einfachhallen", "Name": "Ratsgymnasium neue Halle", "Plz": 48147.0, "Strname": "Bohlweg", "Hsnr": 7.0, "Rechtswert": 3406468.0, "Hochwert": 5760094.0 }, "geometry": { "type": "Point", "coordinates": [ 7.638012410635754, 51.966887522638181 ] } },
{ "type": "Feature", "properties": { "ID": 236, "Produkt": "Turn- und Sporthallen", "Teilprodukt": "Dreifachhallen", "Name": "Dietrich-Bonhoeffer-", "Plz": 48151.0, "Strname": "Bonhoefferstraße", "Hsnr": 54.0, "Rechtswert": 3404134.0, "Hochwert": 5757258.0 }, "geometry": { "type": "Point", "coordinates": [ 7.604852904251233, 51.941009354874119 ] } },
{ "type": "Feature", "properties": { "ID": 237, "Produkt": "Bezirkssportanlage", "Teilprodukt": "überlassen", "Name": "Sportanlage Aaseestadt", "Plz": 48151.0, "Strname": "Bonhoefferstraße", "Hsnr": 54.0, "Rechtswert": 3404134.0, "Hochwert": 5757258.0 }, "geometry": { "type": "Point", "coordinates": [ 7.604852904251233, 51.941009354874119 ] } },
{ "type": "Feature", "properties": { "ID": 238, "Produkt": "Sondersportanlagen", "Teilprodukt": "Beachvolleyballanlagen", "Name": "Sportanlage Aaseestadt", "Plz": 48151.0, "Strname": "Bonhoefferstraße", "Hsnr": 54.0, "Rechtswert": 3404134.0, "Hochwert": 5757258.0 }, "geometry": { "type": "Point", "coordinates": [ 7.604852904251233, 51.941009354874119 ] } },
{ "type": "Feature", "properties": { "ID": 239, "Produkt": "Sondersportanlagen", "Teilprodukt": "Bouleanlagen", "Name": "Sportanlage Aaseestadt", "Plz": 48151.0, "Strname": "Bonhoefferstraße", "Hsnr": 54.0, "Rechtswert": 3404134.0, "Hochwert": 5757258.0 }, "geometry": { "type": "Point", "coordinates": [ 7.604852904251233, 51.941009354874119 ] } },
{ "type": "Feature", "properties": { "ID": 240, "Produkt": "Sondersportanlagen", "Teilprodukt": "Speckbrettanlagen", "Name": "Sportanlage Aaseestadt", "Plz": 48151.0, "Strname": "Bonhoefferstraße", "Hsnr": 54.0, "Rechtswert": 3404134.0, "Hochwert": 5757258.0 }, "geometry": { "type": "Point", "coordinates": [ 7.604852904251233, 51.941009354874119 ] } },
{ "type": "Feature", "properties": { "ID": 241, "Produkt": "Bezirkssportanlage", "Teilprodukt": "nicht überlassen", "Name": "Sportzentrum Wolbeck", "Plz": 48167.0, "Strname": "Brandhoveweg", "Hsnr": 97.0, "Rechtswert": 3411575.0, "Hochwert": 5754185.0 }, "geometry": { "type": "Point", "coordinates": [ 7.713818328547082, 51.914629125788544 ] } },
{ "type": "Feature", "properties": { "ID": 242, "Produkt": "Sondersportanlagen", "Teilprodukt": "Bouleanlagen", "Name": "Sportzentrum Wolbeck", "Plz": 48167.0, "Strname": "Brandhoveweg", "Hsnr": 97.0, "Rechtswert": 3411575.0, "Hochwert": 5754185.0 }, "geometry": { "type": "Point", "coordinates": [ 7.713818328547082, 51.914629125788544 ] } },
{ "type": "Feature", "properties": { "ID": 243, "Produkt": "Sondersportanlagen", "Teilprodukt": "Beachvolleyballanlagen", "Name": "Sportanlage Wolbeck", "Plz": 48167.0, "Strname": "Brandhoveweg", "Hsnr": 97.0, "Rechtswert": 3411575.0, "Hochwert": 5754185.0 }, "geometry": { "type": "Point", "coordinates": [ 7.713818328547082, 51.914629125788544 ] } },
{ "type": "Feature", "properties": { "ID": 244, "Produkt": "Turn- und Sporthallen", "Teilprodukt": "Gymnastikräume", "Name": "Aegidii-Ludgeri-", "Plz": 48143.0, "Strname": "Breite Gasse", "Hsnr": 2.0, "Rechtswert": 3405455.0, "Hochwert": 5759268.0 }, "geometry": { "type": "Point", "coordinates": [ 7.623504575978058, 51.959294807223223 ] } },
{ "type": "Feature", "properties": { "ID": 245, "Produkt": "Turn- und Sporthallen", "Teilprodukt": "Einfachhallen", "Name": "Margaretenschule", "Plz": 48155.0, "Strname": "Brentanoweg", "Hsnr": 18.0, "Rechtswert": 3408916.0, "Hochwert": 5758408.0 }, "geometry": { "type": "Point", "coordinates": [ 7.674067947570818, 51.952144919469085 ] } },
{ "type": "Feature", "properties": { "ID": 246, "Produkt": "Turn- und Sporthallen", "Teilprodukt": "Einfachhallen", "Name": "Uppenbergschule", "Plz": 48159.0, "Strname": "Bröderichweg", "Hsnr": 36.0, "Rechtswert": 3405028.0, "Hochwert": 5763007.0 }, "geometry": { "type": "Point", "coordinates": [ 7.616260877491327, 51.992816305501428 ] } },
{ "type": "Feature", "properties": { "ID": 247, "Produkt": "Sportaußenanlagen an Schulen", "Teilprodukt": "Förderschulen", "Name": "Sportfläche Uppenberg-", "Plz": 48159.0, "Strname": "Bröderichweg", "Hsnr": 36.0, "Rechtswert": 3405028.0, "Hochwert": 5763007.0 }, "geometry": { "type": "Point", "coordinates": [ 7.616260877491327, 51.992816305501428 ] } },
{ "type": "Feature", "properties": { "ID": 248, "Produkt": "Turn- und Sporthallen", "Teilprodukt": "Gymnastikräume", "Name": "Sportpark Sentruper Höhe", "Plz": 48149.0, "Strname": "Sentruper Straße", "Hsnr": 155.0, "Rechtswert": 3403806.0, "Hochwert": 5758721.0 }, "geometry": { "type": "Point", "coordinates": [ 7.599675666384246, 51.954097539453407 ] } },
{ "type": "Feature", "properties": { "ID": 249, "Produkt": "Bezirkssportanlage", "Teilprodukt": "nicht überlassen", "Name": "Sportpark Sentruper Höhe", "Plz": 48149.0, "Strname": "Sentruper Straße", "Hsnr": 155.0, "Rechtswert": 3403806.0, "Hochwert": 5758721.0 }, "geometry": { "type": "Point", "coordinates": [ 7.599675666384246, 51.954097539453407 ] } },
{ "type": "Feature", "properties": { "ID": 250, "Produkt": "Sondersportanlagen", "Teilprodukt": "Bouleanlagen", "Name": "Sportpark Sentruper Höhe", "Plz": 48149.0, "Strname": "Sentruper Straße", "Hsnr": 155.0, "Rechtswert": 3403806.0, "Hochwert": 5758721.0 }, "geometry": { "type": "Point", "coordinates": [ 7.599675666384246, 51.954097539453407 ] } },
{ "type": "Feature", "properties": { "ID": 251, "Produkt": "Sondersportanlagen", "Teilprodukt": "Trimmanlagen", "Name": "Sportpark Sentruper Höhe", "Plz": 48149.0, "Strname": "Sentruper Straße", "Hsnr": 155.0, "Rechtswert": 3403806.0, "Hochwert": 5758721.0 }, "geometry": { "type": "Point", "coordinates": [ 7.599675666384246, 51.954097539453407 ] } },
{ "type": "Feature", "properties": { "ID": 252, "Produkt": "Sondersportanlagen", "Teilprodukt": "Speckbrettanlagen", "Name": "Sportpark Sentruper Höhe", "Plz": 48149.0, "Strname": "Sentruper Straße", "Hsnr": 155.0, "Rechtswert": 3403806.0, "Hochwert": 5758721.0 }, "geometry": { "type": "Point", "coordinates": [ 7.599675666384246, 51.954097539453407 ] } },
{ "type": "Feature", "properties": { "ID": 253, "Produkt": "Sondersportanlagen", "Teilprodukt": "Beachvolleyballanlagen", "Name": "Sportpark Sentruper Höhe", "Plz": 48149.0, "Strname": "Sentruper Straße", "Hsnr": 155.0, "Rechtswert": 3403806.0, "Hochwert": 5758721.0 }, "geometry": { "type": "Point", "coordinates": [ 7.599675666384246, 51.954097539453407 ] } },
{ "type": "Feature", "properties": { "ID": 254, "Produkt": "Turn- und Sporthallen", "Teilprodukt": "Einfachhallen", "Name": "Martin-Luther-Grundschule", "Plz": 48147.0, "Strname": "Coerdestraße", "Hsnr": 8.0, "Rechtswert": 3405785.0, "Hochwert": 5760355.0 }, "geometry": { "type": "Point", "coordinates": [ 7.628006003346112, 51.969117328898484 ] } },
{ "type": "Feature", "properties": { "ID": 255, "Produkt": "Sportaußenanlagen an Schulen", "Teilprodukt": "Grundschulen", "Name": "Sportfläche Martin-Luther-", "Plz": 48147.0, "Strname": "Coerdestraße", "Hsnr": 8.0, "Rechtswert": 3405785.0, "Hochwert": 5760355.0 }, "geometry": { "type": "Point", "coordinates": [ 7.628006003346112, 51.969117328898484 ] } },
{ "type": "Feature", "properties": { "ID": 256, "Produkt": "Bezirkssportanlage", "Teilprodukt": "überlassen", "Name": "Sportanlage Coerde, Coerheide", "Plz": 48157.0, "Strname": "Coerheide", "Hsnr": 47.0, "Rechtswert": 3406977.0, "Hochwert": 5763634.0 }, "geometry": { "type": "Point", "coordinates": [ 7.644457366563909, 51.998779423760325 ] } },
{ "type": "Feature", "properties": { "ID": 257, "Produkt": "Sondersportanlagen", "Teilprodukt": "Trimmanlagen", "Name": "Sportanlage Coerde, Coerheide", "Plz": 48157.0, "Strname": "Coerheide", "Hsnr": 47.0, "Rechtswert": 3406977.0, "Hochwert": 5763634.0 }, "geometry": { "type": "Point", "coordinates": [ 7.644457366563909, 51.998779423760325 ] } },
{ "type": "Feature", "properties": { "ID": 258, "Produkt": "Bezirkssportanlage", "Teilprodukt": "überlassen", "Name": "Sportanlage Coppenrathsweg", "Plz": 48155.0, "Strname": "Coppenrathsweg", "Hsnr": 19.0, "Rechtswert": 3408400.0, "Hochwert": 5761045.0 }, "geometry": { "type": "Point", "coordinates": [ 7.665861968071831, 51.975753706881108 ] } },
{ "type": "Feature", "properties": { "ID": 259, "Produkt": "Turn- und Sporthallen", "Teilprodukt": "Einfachhallen", "Name": "Hauptschule Coerde", "Plz": 48157.0, "Strname": "Dachsleite", "Hsnr": 32.0, "Rechtswert": 3407198.0, "Hochwert": 5763439.0 }, "geometry": { "type": "Point", "coordinates": [ 7.647727064538725, 51.997064319553019 ] } },
{ "type": "Feature", "properties": { "ID": 260, "Produkt": "Turn- und Sporthallen", "Teilprodukt": "Einfachhallen", "Name": "Hermannschule", "Plz": 48153.0, "Strname": "Dahlweg", "Hsnr": 66.0, "Rechtswert": 3405620.0, "Hochwert": 5757664.0 }, "geometry": { "type": "Point", "coordinates": [ 7.626344302645605, 51.944911064482625 ] } },
{ "type": "Feature", "properties": { "ID": 261, "Produkt": "Sportaußenanlagen an Schulen", "Teilprodukt": "Grundschulen", "Name": "Sportfläche Hermannschule", "Plz": 48153.0, "Strname": "Dahlweg", "Hsnr": 66.0, "Rechtswert": 3405620.0, "Hochwert": 5757664.0 }, "geometry": { "type": "Point", "coordinates": [ 7.626344302645605, 51.944911064482625 ] } },
{ "type": "Feature", "properties": { "ID": 262, "Produkt": "Turn- und Sporthallen", "Teilprodukt": "Dreifachhallen", "Name": "Mosaikschule", "Plz": 48161.0, "Strname": "Dieckmannstraße", "Hsnr": 131.0, "Rechtswert": 3401581.0, "Hochwert": 5759999.0 }, "geometry": { "type": "Point", "coordinates": [ 7.566955207868858, 51.965190937517882 ] } },
{ "type": "Feature", "properties": { "ID": 263, "Produkt": "Turn- und Sporthallen", "Teilprodukt": "Vierfachhalle", "Name": "Freiherr-vom-Stein-Gymnasium", "Plz": 48161.0, "Strname": "Dieckmannstraße", "Hsnr": 141.0, "Rechtswert": 3401718.0, "Hochwert": 5759536.0 }, "geometry": { "type": "Point", "coordinates": [ 7.569080231268925, 51.96105526287257 ] } },
{ "type": "Feature", "properties": { "ID": 264, "Produkt": "Turn- und Sporthallen", "Teilprodukt": "Gymnastikräume", "Name": "Freiherr-vom-Stein-Gymnasium", "Plz": 48161.0, "Strname": "Dieckmannstraße", "Hsnr": 141.0, "Rechtswert": 3401718.0, "Hochwert": 5759536.0 }, "geometry": { "type": "Point", "coordinates": [ 7.569080231268925, 51.96105526287257 ] } },
{ "type": "Feature", "properties": { "ID": 265, "Produkt": "Sportaußenanlagen an Schulen", "Teilprodukt": "Gymnasien\/B.-Kollegs", "Name": "Sportfläche Freiherr-vom-Stein-Gymnasium", "Plz": 48161.0, "Strname": "Dieckmannstraße", "Hsnr": 141.0, "Rechtswert": 3401718.0, "Hochwert": 5759536.0 }, "geometry": { "type": "Point", "coordinates": [ 7.569080231268925, 51.96105526287257 ] } },
{ "type": "Feature", "properties": { "ID": 266, "Produkt": "Turn- und Sporthallen", "Teilprodukt": "Einfachhallen", "Name": "Peter-Wust-", "Plz": 48163.0, "Strname": "Dingbängerweg", "Hsnr": 80.0, "Rechtswert": 3402439.0, "Hochwert": 5756385.0 }, "geometry": { "type": "Point", "coordinates": [ 7.580459591711862, 51.9328713017509 ] } },
{ "type": "Feature", "properties": { "ID": 267, "Produkt": "Sportaußenanlagen an Schulen", "Teilprodukt": "Grundschulen", "Name": "Sportfläche Peter-Wust-Schule, Dingbänger Weg", "Plz": 48163.0, "Strname": "Dingbängerweg", "Hsnr": 80.0, "Rechtswert": 3402439.0, "Hochwert": 5756385.0 }, "geometry": { "type": "Point", "coordinates": [ 7.580459591711862, 51.9328713017509 ] } },
{ "type": "Feature", "properties": { "ID": 268, "Produkt": "Turn- und Sporthallen", "Teilprodukt": "Einfachhallen", "Name": "Matthias-Claudius-Schule Handorf", "Plz": 48157.0, "Strname": "Drostestraße", "Hsnr": 7.0, "Rechtswert": 3410999.0, "Hochwert": 5762557.0 }, "geometry": { "type": "Point", "coordinates": [ 7.703283343851028, 51.989761242546678 ] } },
{ "type": "Feature", "properties": { "ID": 269, "Produkt": "Sportaußenanlagen an Schulen", "Teilprodukt": "Grundschulen", "Name": "Sportfläche Matthias-Claudius-", "Plz": 48157.0, "Strname": "Drostestraße", "Hsnr": 7.0, "Rechtswert": 3410999.0, "Hochwert": 5762557.0 }, "geometry": { "type": "Point", "coordinates": [ 7.703283343851028, 51.989761242546678 ] } },
{ "type": "Feature", "properties": { "ID": 270, "Produkt": "Sondersportanlagen", "Teilprodukt": "Beachvolleyballanlagen", "Name": "", "Plz": 48157.0, "Strname": "Dyckburgstraße", "Hsnr": 468.0, "Rechtswert": 3410740.0, "Hochwert": 5763710.0 }, "geometry": { "type": "Point", "coordinates": [ 7.699214015323276, 52.000079509114464 ] } },
{ "type": "Feature", "properties": { "ID": 271, "Produkt": "Bezirkssportanlage", "Teilprodukt": "überlassen", "Name": "Sportanlage Egelshove", "Plz": 48163.0, "Strname": "Egelshove", "Hsnr": 1.0, "Rechtswert": 3401957.0, "Hochwert": 5756767.0 }, "geometry": { "type": "Point", "coordinates": [ 7.573345168044981, 51.936218830096124 ] } },
{ "type": "Feature", "properties": { "ID": 272, "Produkt": "Sondersportanlagen", "Teilprodukt": "Speckbrettanlagen", "Name": "Sportanlage Egelshove", "Plz": 48163.0, "Strname": "Egelshove", "Hsnr": 1.0, "Rechtswert": 3401957.0, "Hochwert": 5756767.0 }, "geometry": { "type": "Point", "coordinates": [ 7.573345168044981, 51.936218830096124 ] } },
{ "type": "Feature", "properties": { "ID": 273, "Produkt": "Sondersportanlagen", "Teilprodukt": "Beachvolleyballanlagen", "Name": "Sportanlage Egelshove", "Plz": 48163.0, "Strname": "Egelshove", "Hsnr": 1.0, "Rechtswert": 3401957.0, "Hochwert": 5756767.0 }, "geometry": { "type": "Point", "coordinates": [ 7.573345168044981, 51.936218830096124 ] } },
{ "type": "Feature", "properties": { "ID": 274, "Produkt": "Turn- und Sporthallen", "Teilprodukt": "Einfachhallen", "Name": "Eichendorffschule Angelmodde", "Plz": 48167.0, "Strname": "Eichendorffstraße", "Hsnr": 36.0, "Rechtswert": 3410264.0, "Hochwert": 5754275.0 }, "geometry": { "type": "Point", "coordinates": [ 7.694746836383524, 51.915228239983115 ] } },
{ "type": "Feature", "properties": { "ID": 275, "Produkt": "Bezirkssportanlage", "Teilprodukt": "nicht überlassen", "Name": "Sportanlage Angelmodde", "Plz": 48167.0, "Strname": "Eichendorffstraße", "Hsnr": 38.0, "Rechtswert": 3410322.0, "Hochwert": 5754300.0 }, "geometry": { "type": "Point", "coordinates": [ 7.695583049522888, 51.915462206017139 ] } },
{ "type": "Feature", "properties": { "ID": 276, "Produkt": "Bezirkssportanlage", "Teilprodukt": "überlassen", "Name": "Sportzentrum Feldstiege", "Plz": 48161.0, "Strname": "Feldstiege", "Hsnr": 45.0, "Rechtswert": 3400422.0, "Hochwert": 5763838.0 }, "geometry": { "type": "Point", "coordinates": [ 7.548984502612916, 51.99947637090726 ] } },
{ "type": "Feature", "properties": { "ID": 277, "Produkt": "Sondersportanlagen", "Teilprodukt": "Bouleanlagen", "Name": "Sportzentrum Feldstiege", "Plz": 48161.0, "Strname": "Feldstiege", "Hsnr": 45.0, "Rechtswert": 3400422.0, "Hochwert": 5763838.0 }, "geometry": { "type": "Point", "coordinates": [ 7.548984502612916, 51.99947637090726 ] } },
{ "type": "Feature", "properties": { "ID": 278, "Produkt": "Sondersportanlagen", "Teilprodukt": "Beachvolleyballanlagen", "Name": "Sportanlage Nienberge", "Plz": 48161.0, "Strname": "Feldstiege", "Hsnr": 45.0, "Rechtswert": 3400422.0, "Hochwert": 5763838.0 }, "geometry": { "type": "Point", "coordinates": [ 7.548984502612916, 51.99947637090726 ] } },
{ "type": "Feature", "properties": { "ID": 279, "Produkt": "Turn- und Sporthallen", "Teilprodukt": "Einfachhallen", "Name": "Realschule im Kreuzviertel, Halle 2", "Plz": 48147.0, "Strname": "Finkenstraße", "Hsnr": 76.0, "Rechtswert": 3405275.0, "Hochwert": 5760899.0 }, "geometry": { "type": "Point", "coordinates": [ 7.620437281136118, 51.973918470488186 ] } },
{ "type": "Feature", "properties": { "ID": 280, "Produkt": "Turn- und Sporthallen", "Teilprodukt": "Einfachhallen", "Name": "Realschule im Kreuzviertel, Halle 1", "Plz": 48147.0, "Strname": "Finkenstraße", "Hsnr": 76.0, "Rechtswert": 3405275.0, "Hochwert": 5760899.0 }, "geometry": { "type": "Point", "coordinates": [ 7.620437281136118, 51.973918470488186 ] } },
{ "type": "Feature", "properties": { "ID": 281, "Produkt": "Turn- und Sporthallen", "Teilprodukt": "Einfachhallen", "Name": "Dreifaltigkeitsschule", "Plz": 48147.0, "Strname": "Friesenring", "Hsnr": 25.0, "Rechtswert": 3404976.0, "Hochwert": 5761033.0 }, "geometry": { "type": "Point", "coordinates": [ 7.616050333395855, 51.97507143362855 ] } },
{ "type": "Feature", "properties": { "ID": 282, "Produkt": "Sportaußenanlagen an Schulen", "Teilprodukt": "Grundschulen", "Name": "Sportfläche Dreifaltigkeits-", "Plz": 48147.0, "Strname": "Friesenring", "Hsnr": 25.0, "Rechtswert": 3404976.0, "Hochwert": 5761033.0 }, "geometry": { "type": "Point", "coordinates": [ 7.616050333395855, 51.97507143362855 ] } },
{ "type": "Feature", "properties": { "ID": 283, "Produkt": "Turn- und Sporthallen", "Teilprodukt": "Einfachhallen", "Name": "Astrid Lindgren-Schule Gelmer", "Plz": 48157.0, "Strname": "Gelmerheide", "Hsnr": 3.0, "Rechtswert": 3409148.0, "Hochwert": 5767031.0 }, "geometry": { "type": "Point", "coordinates": [ 7.675159117333865, 52.02966054563332 ] } },
{ "type": "Feature", "properties": { "ID": 284, "Produkt": "Turn- und Sporthallen", "Teilprodukt": "Einfachhallen", "Name": "Schillergymnasium alte Halle", "Plz": 48149.0, "Strname": "Gertrudenstraße", "Hsnr": 5.0, "Rechtswert": 3405288.0, "Hochwert": 5760331.0 }, "geometry": { "type": "Point", "coordinates": [ 7.620782962034687, 51.968817299557301 ] } },
{ "type": "Feature", "properties": { "ID": 285, "Produkt": "Turn- und Sporthallen", "Teilprodukt": "Einfachhallen", "Name": "Schillergymnasium neue Halle", "Plz": 48149.0, "Strname": "Gertrudenstraße", "Hsnr": 5.0, "Rechtswert": 3405288.0, "Hochwert": 5760331.0 }, "geometry": { "type": "Point", "coordinates": [ 7.620782962034687, 51.968817299557301 ] } },
{ "type": "Feature", "properties": { "ID": 286, "Produkt": "Sportaußenanlagen an Schulen", "Teilprodukt": "Gymnasien\/B.-Kollegs", "Name": "Sportfläche Schiller-Gymnasium", "Plz": 48149.0, "Strname": "Gertrudenstraße", "Hsnr": 5.0, "Rechtswert": 3405288.0, "Hochwert": 5760331.0 }, "geometry": { "type": "Point", "coordinates": [ 7.620782962034687, 51.968817299557301 ] } },
{ "type": "Feature", "properties": { "ID": 287, "Produkt": "Turn- und Sporthallen", "Teilprodukt": "Einfachhallen", "Name": "Gottfried-v-Cappenberg", "Plz": 48151.0, "Strname": "Glatzer Weg", "Hsnr": 9.0, "Rechtswert": 3404643.0, "Hochwert": 5756378.0 }, "geometry": { "type": "Point", "coordinates": [ 7.612496172512154, 51.933190078607716 ] } },
{ "type": "Feature", "properties": { "ID": 288, "Produkt": "Sportaußenanlagen an Schulen", "Teilprodukt": "Grundschulen", "Name": "Sportfläche Gottfried-von-Cappenberg-", "Plz": 48151.0, "Strname": "Glatzer Weg", "Hsnr": 9.0, "Rechtswert": 3404643.0, "Hochwert": 5756378.0 }, "geometry": { "type": "Point", "coordinates": [ 7.612496172512154, 51.933190078607716 ] } },
{ "type": "Feature", "properties": { "ID": 289, "Produkt": "Turn- und Sporthallen", "Teilprodukt": "Einfachhallen", "Name": "Geistschule, alte H.", "Plz": 48151.0, "Strname": "Grevingstraße", "Hsnr": 24.0, "Rechtswert": 3405310.0, "Hochwert": 5757048.0 }, "geometry": { "type": "Point", "coordinates": [ 7.622006742653626, 51.939323742973954 ] } },
{ "type": "Feature", "properties": { "ID": 290, "Produkt": "Turn- und Sporthallen", "Teilprodukt": "Einfachhallen", "Name": "Geistschule, neue H.", "Plz": 48151.0, "Strname": "Grevingstraße", "Hsnr": 24.0, "Rechtswert": 3405310.0, "Hochwert": 5757048.0 }, "geometry": { "type": "Point", "coordinates": [ 7.622006742653626, 51.939323742973954 ] } },
{ "type": "Feature", "properties": { "ID": 291, "Produkt": "Bezirkssportanlage", "Teilprodukt": "überlassen", "Name": "Sportanlage Grevingstraße", "Plz": 48151.0, "Strname": "Grevingstraße", "Hsnr": 32.0, "Rechtswert": 3405355.0, "Hochwert": 5756819.0 }, "geometry": { "type": "Point", "coordinates": [ 7.622723858098385, 51.937273852789403 ] } },
{ "type": "Feature", "properties": { "ID": 292, "Produkt": "Sondersportanlagen", "Teilprodukt": "Bouleanlagen", "Name": "Sportanlage Grevingstraße", "Plz": 48151.0, "Strname": "Grevingstraße", "Hsnr": 32.0, "Rechtswert": 3405355.0, "Hochwert": 5756819.0 }, "geometry": { "type": "Point", "coordinates": [ 7.622723858098385, 51.937273852789403 ] } },
{ "type": "Feature", "properties": { "ID": 293, "Produkt": "Sondersportanlagen", "Teilprodukt": "Speckbrettanlagen", "Name": "Sportanlage Grevingstraße", "Plz": 48151.0, "Strname": "Grevingstraße", "Hsnr": 32.0, "Rechtswert": 3405355.0, "Hochwert": 5756819.0 }, "geometry": { "type": "Point", "coordinates": [ 7.622723858098385, 51.937273852789403 ] } },
{ "type": "Feature", "properties": { "ID": 294, "Produkt": "Sondersportanlagen", "Teilprodukt": "Beachvolleyballanlagen", "Name": "Sportanlage Grevingstraße", "Plz": 48151.0, "Strname": "Grevingstraße", "Hsnr": 32.0, "Rechtswert": 3405355.0, "Hochwert": 5756819.0 }, "geometry": { "type": "Point", "coordinates": [ 7.622723858098385, 51.937273852789403 ] } },
{ "type": "Feature", "properties": { "ID": 295, "Produkt": "Turn- und Sporthallen", "Teilprodukt": "Einfachhallen", "Name": "Waldschule Kinderhaus", "Plz": 48159.0, "Strname": "Große Wiese", "Hsnr": 14.0, "Rechtswert": 3404653.0, "Hochwert": 5763948.0 }, "geometry": { "type": "Point", "coordinates": [ 7.610541563972491, 52.001206758222835 ] } },
{ "type": "Feature", "properties": { "ID": 296, "Produkt": "Sportaußenanlagen an Schulen", "Teilprodukt": "Haupt-\/Realschulen", "Name": "Sportfläche Waldschule Kinderhaus", "Plz": 48159.0, "Strname": "Große Wiese", "Hsnr": 14.0, "Rechtswert": 3404653.0, "Hochwert": 5763948.0 }, "geometry": { "type": "Point", "coordinates": [ 7.610541563972491, 52.001206758222835 ] } },
{ "type": "Feature", "properties": { "ID": 297, "Produkt": "Turn- und Sporthallen", "Teilprodukt": "Einfachhallen", "Name": "Annette-von-Droste-Hülshoff-Gymnasium", "Plz": 48143.0, "Strname": "Grüne Gasse", "Hsnr": 40.0, "Rechtswert": 3405500.0, "Hochwert": 5759118.0 }, "geometry": { "type": "Point", "coordinates": [ 7.624200250731023, 51.957954720881361 ] } },
{ "type": "Feature", "properties": { "ID": 298, "Produkt": "Sportaußenanlagen an Schulen", "Teilprodukt": "Gymnasien\/B.-Kollegs", "Name": "Sportfläche Annette-von-Droste-Hülshoff-Gymnasium", "Plz": 48143.0, "Strname": "Grüne Gasse", "Hsnr": 40.0, "Rechtswert": 3405500.0, "Hochwert": 5759118.0 }, "geometry": { "type": "Point", "coordinates": [ 7.624200250731023, 51.957954720881361 ] } },
{ "type": "Feature", "properties": { "ID": 299, "Produkt": "Turn- und Sporthallen", "Teilprodukt": "Einfachhallen", "Name": "Matthias-Claudius-", "Plz": 48151.0, "Strname": "Gut Insel", "Hsnr": 36.0, "Rechtswert": 3404668.0, "Hochwert": 5756968.0 }, "geometry": { "type": "Point", "coordinates": [ 7.612696200036891, 51.938495423458313 ] } },
{ "type": "Feature", "properties": { "ID": 300, "Produkt": "Sportaußenanlagen an Schulen", "Teilprodukt": "Grundschulen", "Name": "Sportfläche Matthias-Claudius-", "Plz": 48151.0, "Strname": "Gut Insel", "Hsnr": 36.0, "Rechtswert": 3404668.0, "Hochwert": 5756968.0 }, "geometry": { "type": "Point", "coordinates": [ 7.612696200036891, 51.938495423458313 ] } },
{ "type": "Feature", "properties": { "ID": 301, "Produkt": "Turn- und Sporthallen", "Teilprodukt": "Dreifachhallen", "Name": "Ludwig-Erhard-Berufskolleg", "Plz": 48151.0, "Strname": "Gut Insel", "Hsnr": 41.0, "Rechtswert": 3404633.0, "Hochwert": 5756804.0 }, "geometry": { "type": "Point", "coordinates": [ 7.612232844270867, 51.937015915311768 ] } },
{ "type": "Feature", "properties": { "ID": 302, "Produkt": "Sportaußenanlagen an Schulen", "Teilprodukt": "Gymnasien\/B.-Kollegs", "Name": "Sportfläche Ludwig-Erhard-Berufskolleg", "Plz": 48151.0, "Strname": "Gut Insel", "Hsnr": 41.0, "Rechtswert": 3404633.0, "Hochwert": 5756804.0 }, "geometry": { "type": "Point", "coordinates": [ 7.612232844270867, 51.937015915311768 ] } },
{ "type": "Feature", "properties": { "ID": 303, "Produkt": "Turn- und Sporthallen", "Teilprodukt": "Einfachhallen", "Name": "Bodelschwinghschule", "Plz": 48145.0, "Strname": "Gutenbergstraße", "Hsnr": 14.0, "Rechtswert": 3406945.0, "Hochwert": 5759334.0 }, "geometry": { "type": "Point", "coordinates": [ 7.645156569564846, 51.960138960212525 ] } },
{ "type": "Feature", "properties": { "ID": 304, "Produkt": "Sportaußenanlagen an Schulen", "Teilprodukt": "Grundschulen", "Name": "Sportfläche Bodelschwinghschule", "Plz": 48145.0, "Strname": "Gutenbergstraße", "Hsnr": 14.0, "Rechtswert": 3406945.0, "Hochwert": 5759334.0 }, "geometry": { "type": "Point", "coordinates": [ 7.645156569564846, 51.960138960212525 ] } },
{ "type": "Feature", "properties": { "ID": 305, "Produkt": "Sondersportanlagen", "Teilprodukt": "Bouleanlagen", "Name": "Hakenesheide Gelmer", "Plz": 48157.0, "Strname": "Hakenesheide", "Hsnr": 22.0, "Rechtswert": 3409321.0, "Hochwert": 5766659.0 }, "geometry": { "type": "Point", "coordinates": [ 7.677777614102313, 52.02634643406396 ] } },
{ "type": "Feature", "properties": { "ID": 306, "Produkt": "Bezirkssportanlage", "Teilprodukt": "überlassen", "Name": "Sportanlage Hakenesheide", "Plz": 48157.0, "Strname": "Hakenesheide", "Hsnr": 39.0, "Rechtswert": 3409118.0, "Hochwert": 5766584.0 }, "geometry": { "type": "Point", "coordinates": [ 7.674840728837201, 52.025639363964487 ] } },
{ "type": "Feature", "properties": { "ID": 307, "Produkt": "Bezirkssportanlage", "Teilprodukt": "überlassen", "Name": "Preußenstadion", "Plz": 48153.0, "Strname": "Hammer Straße", "Hsnr": 302.0, "Rechtswert": 3405518.0, "Hochwert": 5756072.0 }, "geometry": { "type": "Point", "coordinates": [ 7.625298221932801, 51.930589804231239 ] } },
{ "type": "Feature", "properties": { "ID": 308, "Produkt": "Bezirkssportanlage", "Teilprodukt": "überlassen", "Name": "Sportanlage Hensenstraße\/Gievenbecker Weg", "Plz": 48161.0, "Strname": "Gievenbecker Weg", "Hsnr": 200.0, "Rechtswert": 3402509.0, "Hochwert": 5760687.0 }, "geometry": { "type": "Point", "coordinates": [ 7.580257849653342, 51.971535782095572 ] } },
{ "type": "Feature", "properties": { "ID": 309, "Produkt": "Sondersportanlagen", "Teilprodukt": "Beachvolleyballanlagen", "Name": "Sportanlage Hensenstraße\/Gievenbecker Weg", "Plz": 48161.0, "Strname": "Gievenbecker Weg", "Hsnr": 200.0, "Rechtswert": 3402509.0, "Hochwert": 5760687.0 }, "geometry": { "type": "Point", "coordinates": [ 7.580257849653342, 51.971535782095572 ] } },
{ "type": "Feature", "properties": { "ID": 310, "Produkt": "Turn- und Sporthallen", "Teilprodukt": "Zweifachhalle", "Name": "Turnhalle Middelfeld", "Plz": 48157.0, "Strname": "Heriburgstraße", "Hsnr": 17.0, "Rechtswert": 3411202.0, "Hochwert": 5762527.0 }, "geometry": { "type": "Point", "coordinates": [ 7.70624551545291, 51.989524158036595 ] } },
{ "type": "Feature", "properties": { "ID": 311, "Produkt": "Bezirkssportanlage", "Teilprodukt": "überlassen", "Name": "Sportanlage Handorf", "Plz": 48157.0, "Strname": "Heriburgstraße", "Hsnr": 17.0, "Rechtswert": 3411202.0, "Hochwert": 5762527.0 }, "geometry": { "type": "Point", "coordinates": [ 7.70624551545291, 51.989524158036595 ] } },
{ "type": "Feature", "properties": { "ID": 312, "Produkt": "Sondersportanlagen", "Teilprodukt": "Beachvolleyballanlagen", "Name": "Sportanlage Handorf", "Plz": 48157.0, "Strname": "Heriburgstraße", "Hsnr": 17.0, "Rechtswert": 3411202.0, "Hochwert": 5762527.0 }, "geometry": { "type": "Point", "coordinates": [ 7.70624551545291, 51.989524158036595 ] } },
{ "type": "Feature", "properties": { "ID": 313, "Produkt": "Turn- und Sporthallen", "Teilprodukt": "Einfachhallen", "Name": "Josefschule", "Plz": 48151.0, "Strname": "Hermannstraße", "Hsnr": 58.0, "Rechtswert": 3405489.0, "Hochwert": 5758357.0 }, "geometry": { "type": "Point", "coordinates": [ 7.624249378730399, 51.951115366190024 ] } },
{ "type": "Feature", "properties": { "ID": 314, "Produkt": "Sportaußenanlagen an Schulen", "Teilprodukt": "Grundschulen", "Name": "Sportfläche Josefschule", "Plz": 48151.0, "Strname": "Hermannstraße", "Hsnr": 58.0, "Rechtswert": 3405489.0, "Hochwert": 5758357.0 }, "geometry": { "type": "Point", "coordinates": [ 7.624249378730399, 51.951115366190024 ] } },
{ "type": "Feature", "properties": { "ID": 315, "Produkt": "Turn- und Sporthallen", "Teilprodukt": "Einfachhallen", "Name": "Annette-von-Droste-Hülshoff", "Plz": 48167.0, "Strname": "Höftestraße", "Hsnr": 4.0, "Rechtswert": 3409299.0, "Hochwert": 5754961.0 }, "geometry": { "type": "Point", "coordinates": [ 7.680545332338146, 51.921235819755118 ] } },
{ "type": "Feature", "properties": { "ID": 316, "Produkt": "Turn- und Sporthallen", "Teilprodukt": "Dreifachhallen", "Name": "Hans-Böckler-Berufskolleg", "Plz": 48155.0, "Strname": "Hoffschultestraße", "Hsnr": 25.0, "Rechtswert": 3407686.0, "Hochwert": 5758909.0 }, "geometry": { "type": "Point", "coordinates": [ 7.656047671062899, 51.956443759836858 ] } },
{ "type": "Feature", "properties": { "ID": 317, "Produkt": "Turn- und Sporthallen", "Teilprodukt": "Einfachhallen", "Name": "Gemeinschaftsgrundschule Berg Fidel", "Plz": 48153.0, "Strname": "Hogenbergstraße", "Hsnr": 160.0, "Rechtswert": 3404872.0, "Hochwert": 5755419.0 }, "geometry": { "type": "Point", "coordinates": [ 7.616089502543103, 51.924612735657476 ] } },
{ "type": "Feature", "properties": { "ID": 318, "Produkt": "Sportaußenanlagen an Schulen", "Teilprodukt": "Grundschulen", "Name": "Sportfläche Gemeinschaftsgrundschule Berg Fidel", "Plz": 48153.0, "Strname": "Hogenbergstraße", "Hsnr": 160.0, "Rechtswert": 3404872.0, "Hochwert": 5755419.0 }, "geometry": { "type": "Point", "coordinates": [ 7.616089502543103, 51.924612735657476 ] } },
{ "type": "Feature", "properties": { "ID": 319, "Produkt": "Bezirkssportanlage", "Teilprodukt": "überlassen", "Name": "Sportanlage Concordenstraße", "Plz": 48163.0, "Strname": "Hohe Geist", "Hsnr": 7.0, "Rechtswert": 3398945.0, "Hochwert": 5755412.0 }, "geometry": { "type": "Point", "coordinates": [ 7.529961986954766, 51.923506413223059 ] } },
{ "type": "Feature", "properties": { "ID": 320, "Produkt": "Turn- und Sporthallen", "Teilprodukt": "Dreifachhallen", "Name": "Ludgerusschule Albachten", "Plz": 48163.0, "Strname": "Hohe Geist", "Hsnr": 8.0, "Rechtswert": 3398798.0, "Hochwert": 5755359.0 }, "geometry": { "type": "Point", "coordinates": [ 7.527841457882099, 51.92300355262455 ] } },
{ "type": "Feature", "properties": { "ID": 321, "Produkt": "Turn- und Sporthallen", "Teilprodukt": "Zweifachhalle", "Name": "Norbert-Grundschule", "Plz": 48147.0, "Strname": "Hoher Heckenweg", "Hsnr": 241.0, "Rechtswert": 3407174.0, "Hochwert": 5762450.0 }, "geometry": { "type": "Point", "coordinates": [ 7.647645222211406, 51.988174246250175 ] } },
{ "type": "Feature", "properties": { "ID": 322, "Produkt": "Turn- und Sporthallen", "Teilprodukt": "Gymnastikräume", "Name": "Norbert-Grundschule", "Plz": 48147.0, "Strname": "Hoher Heckenweg", "Hsnr": 241.0, "Rechtswert": 3407174.0, "Hochwert": 5762450.0 }, "geometry": { "type": "Point", "coordinates": [ 7.647645222211406, 51.988174246250175 ] } },
{ "type": "Feature", "properties": { "ID": 323, "Produkt": "Turn- und Sporthallen", "Teilprodukt": "Leichtathletikhalle", "Name": "Leichtathl.-halle", "Plz": 48149.0, "Strname": "Horstmarer Landweg", "Hsnr": 45.0, "Rechtswert": 3403913.0, "Hochwert": 5760490.0 }, "geometry": { "type": "Point", "coordinates": [ 7.600737227070389, 51.970010083508761 ] } },
{ "type": "Feature", "properties": { "ID": 324, "Produkt": "Turn- und Sporthallen", "Teilprodukt": "Krafträume", "Name": "Leichtathl.-halle", "Plz": 48149.0, "Strname": "Horstmarer Landweg", "Hsnr": 45.0, "Rechtswert": 3403913.0, "Hochwert": 5760490.0 }, "geometry": { "type": "Point", "coordinates": [ 7.600737227070389, 51.970010083508761 ] } },
{ "type": "Feature", "properties": { "ID": 325, "Produkt": "Sondersportanlagen", "Teilprodukt": "Beachvolleyballanlagen", "Name": "Universitätsgelände", "Plz": 48149.0, "Strname": "Horstmarer Landweg", "Hsnr": 62.0, "Rechtswert": 3403791.0, "Hochwert": 5760628.0 }, "geometry": { "type": "Point", "coordinates": [ 7.598923889314762, 51.971228892808938 ] } },
{ "type": "Feature", "properties": { "ID": 326, "Produkt": "Bezirkssportanlage", "Teilprodukt": "überlassen", "Name": "Sportanlage Sprakel", "Plz": 48159.0, "Strname": "Im Draum", "Hsnr": 41.0, "Rechtswert": 3404926.0, "Hochwert": 5768108.0 }, "geometry": { "type": "Point", "coordinates": [ 7.613361423009059, 52.038629993920324 ] } },
{ "type": "Feature", "properties": { "ID": 327, "Produkt": "Sondersportanlagen", "Teilprodukt": "Bouleanlagen", "Name": "Sportanlage Im Draum", "Plz": 48159.0, "Strname": "Im Draum", "Hsnr": 41.0, "Rechtswert": 3404926.0, "Hochwert": 5768108.0 }, "geometry": { "type": "Point", "coordinates": [ 7.613361423009059, 52.038629993920324 ] } },
{ "type": "Feature", "properties": { "ID": 328, "Produkt": "Sondersportanlagen", "Teilprodukt": "Beachvolleyballanlagen", "Name": "Sportanlage Sprakel", "Plz": 48159.0, "Strname": "Im Draum", "Hsnr": 41.0, "Rechtswert": 3404926.0, "Hochwert": 5768108.0 }, "geometry": { "type": "Point", "coordinates": [ 7.613361423009059, 52.038629993920324 ] } },
{ "type": "Feature", "properties": { "ID": 329, "Produkt": "Turn- und Sporthallen", "Teilprodukt": "Einfachhallen", "Name": "Turnhalle Dyckburg", "Plz": 48157.0, "Strname": "Im Sundern", "Hsnr": 11.0, "Rechtswert": 3409035.0, "Hochwert": 5762559.0 }, "geometry": { "type": "Point", "coordinates": [ 7.674699543898246, 51.989461253113369 ] } },
{ "type": "Feature", "properties": { "ID": 330, "Produkt": "Turn- und Sporthallen", "Teilprodukt": "Einfachhallen", "Name": "Grundschule Sprakel", "Plz": 48159.0, "Strname": "In der Au", "Hsnr": 3.0, "Rechtswert": 3405075.0, "Hochwert": 5768015.0 }, "geometry": { "type": "Point", "coordinates": [ 7.615558006772583, 52.037819925087071 ] } },
{ "type": "Feature", "properties": { "ID": 331, "Produkt": "Turn- und Sporthallen", "Teilprodukt": "Zweifachhalle", "Name": "Grundschule Kinderhaus-West", "Plz": 48159.0, "Strname": "Josef-Beckmann-Straße", "Hsnr": 33.0, "Rechtswert": 3403484.0, "Hochwert": 5763483.0 }, "geometry": { "type": "Point", "coordinates": [ 7.593655441706824, 51.996827064258184 ] } },
{ "type": "Feature", "properties": { "ID": 332, "Produkt": "Sportaußenanlagen an Schulen", "Teilprodukt": "Grundschulen", "Name": "Sportfläche Grundschule Kinderhaus-West", "Plz": 48159.0, "Strname": "Josef-Beckmann-Straße", "Hsnr": 33.0, "Rechtswert": 3403484.0, "Hochwert": 5763483.0 }, "geometry": { "type": "Point", "coordinates": [ 7.593655441706824, 51.996827064258184 ] } },
{ "type": "Feature", "properties": { "ID": 333, "Produkt": "Turn- und Sporthallen", "Teilprodukt": "Einfachhallen", "Name": "Paul-Gerhardt-Realschule", "Plz": 48143.0, "Strname": "Jüdefelderstraße", "Hsnr": 10.0, "Rechtswert": 3405202.0, "Hochwert": 5759806.0 }, "geometry": { "type": "Point", "coordinates": [ 7.619676758007596, 51.964085612621943 ] } },
{ "type": "Feature", "properties": { "ID": 334, "Produkt": "Sportaußenanlagen an Schulen", "Teilprodukt": "Haupt-\/Realschulen", "Name": "Sportfläche Paul-Gerhardt-Realschule", "Plz": 48143.0, "Strname": "Jüdefelderstraße", "Hsnr": 10.0, "Rechtswert": 3405202.0, "Hochwert": 5759806.0 }, "geometry": { "type": "Point", "coordinates": [ 7.619676758007596, 51.964085612621943 ] } },
{ "type": "Feature", "properties": { "ID": 335, "Produkt": "Sportaußenanlagen an Schulen", "Teilprodukt": "Haupt-\/Realschulen", "Name": "Sportfläche Überwasserschule", "Plz": 48143.0, "Strname": "Jüdefelderstraße", "Hsnr": 10.0, "Rechtswert": 3405202.0, "Hochwert": 5759806.0 }, "geometry": { "type": "Point", "coordinates": [ 7.619676758007596, 51.964085612621943 ] } },
{ "type": "Feature", "properties": { "ID": 336, "Produkt": "Turn- und Sporthallen", "Teilprodukt": "Einfachhallen", "Name": "Adolph-Kolping-Berufskolleg", "Plz": 48145.0, "Strname": "Kaiser-Wilhelm-Ring", "Hsnr": 1.0, "Rechtswert": 3407009.0, "Hochwert": 5759763.0 }, "geometry": { "type": "Point", "coordinates": [ 7.645971342297505, 51.964004198034061 ] } },
{ "type": "Feature", "properties": { "ID": 337, "Produkt": "Turn- und Sporthallen", "Teilprodukt": "Einfachhallen", "Name": "Kreuzschule", "Plz": 48147.0, "Strname": "Kampstraße", "Hsnr": 15.0, "Rechtswert": 3405496.0, "Hochwert": 5760419.0 }, "geometry": { "type": "Point", "coordinates": [ 7.623784435210061, 51.969643339350043 ] } },
{ "type": "Feature", "properties": { "ID": 338, "Produkt": "Sportaußenanlagen an Schulen", "Teilprodukt": "Grundschulen", "Name": "Sportfläche Kreuzschule", "Plz": 48147.0, "Strname": "Kampstraße", "Hsnr": 15.0, "Rechtswert": 3405496.0, "Hochwert": 5760419.0 }, "geometry": { "type": "Point", "coordinates": [ 7.623784435210061, 51.969643339350043 ] } },
{ "type": "Feature", "properties": { "ID": 339, "Produkt": "Turn- und Sporthallen", "Teilprodukt": "Einfachhallen", "Name": "Überwasserhalle 1x", "Plz": 48143.0, "Strname": "Katthagen", "Hsnr": 7.0, "Rechtswert": 3405244.0, "Hochwert": 5759833.0 }, "geometry": { "type": "Point", "coordinates": [ 7.620280203658679, 51.964335357580644 ] } },
{ "type": "Feature", "properties": { "ID": 340, "Produkt": "Turn- und Sporthallen", "Teilprodukt": "Einfachhallen", "Name": "Annette-von-Droste-Hülshoff", "Plz": 48161.0, "Strname": "Kirmstraße", "Hsnr": 1.0, "Rechtswert": 3401180.0, "Hochwert": 5763419.0 }, "geometry": { "type": "Point", "coordinates": [ 7.560138646933051, 51.995847152984624 ] } },
{ "type": "Feature", "properties": { "ID": 341, "Produkt": "Turn- und Sporthallen", "Teilprodukt": "Einfachhallen", "Name": "Melanchthonschule", "Plz": 48157.0, "Strname": "Königsberger Straße", "Hsnr": 91.0, "Rechtswert": 3407031.0, "Hochwert": 5763022.0 }, "geometry": { "type": "Point", "coordinates": [ 7.645409225479192, 51.993289710207662 ] } },
{ "type": "Feature", "properties": { "ID": 342, "Produkt": "Sportaußenanlagen an Schulen", "Teilprodukt": "Grundschulen", "Name": "Sportfläche Melanchtonschule", "Plz": 48157.0, "Strname": "Königsberger Straße", "Hsnr": 91.0, "Rechtswert": 3407031.0, "Hochwert": 5763022.0 }, "geometry": { "type": "Point", "coordinates": [ 7.645409225479192, 51.993289710207662 ] } },
{ "type": "Feature", "properties": { "ID": 343, "Produkt": "Sondersportanlagen", "Teilprodukt": "Beachvolleyballanlagen", "Name": "Freibad Stapelskotten", "Plz": 48157.0, "Strname": "Laerer Werseufer", "Hsnr": 2.0, "Rechtswert": 3410057.0, "Hochwert": 5757880.0 }, "geometry": { "type": "Point", "coordinates": [ 7.690797795650065, 51.947586338439692 ] } },
{ "type": "Feature", "properties": { "ID": 344, "Produkt": "Turn- und Sporthallen", "Teilprodukt": "Dreifachhallen", "Name": "Adolph-Kolping-Berufskolleg", "Plz": 48147.0, "Strname": "Lotharingerstraße", "Hsnr": 30.0, "Rechtswert": 3406016.0, "Hochwert": 5760150.0 }, "geometry": { "type": "Point", "coordinates": [ 7.631422336491595, 51.967314503099416 ] } },
{ "type": "Feature", "properties": { "ID": 345, "Produkt": "Bezirkssportanlage", "Teilprodukt": "überlassen", "Name": "Sportanlage Maikottenweg", "Plz": 48155.0, "Strname": "Maikottenweg", "Hsnr": 188.0, "Rechtswert": 3408743.0, "Hochwert": 5759650.0 }, "geometry": { "type": "Point", "coordinates": [ 7.671222710351809, 51.963275998441127 ] } },
{ "type": "Feature", "properties": { "ID": 346, "Produkt": "Turn- und Sporthallen", "Teilprodukt": "Gymnastikräume", "Name": "Anne-Frank-Berufskolleg", "Plz": 48145.0, "Strname": "Manfred-von-Richthofen-Straße", "Hsnr": 39.0, "Rechtswert": 3407460.0, "Hochwert": 5759224.0 }, "geometry": { "type": "Point", "coordinates": [ 7.65267626134903, 51.959236494001068 ] } },
{ "type": "Feature", "properties": { "ID": 347, "Produkt": "Sportaußenanlagen an Schulen", "Teilprodukt": "Haupt-\/Realschulen", "Name": "Sportfläche Fürstin-von-Gallitzin-", "Plz": 48145.0, "Strname": "Manfred-von-Richthofen-Straße", "Hsnr": 46.0, "Rechtswert": 3407668.0, "Hochwert": 5759088.0 }, "geometry": { "type": "Point", "coordinates": [ 7.655737844723088, 51.958049085950734 ] } },
{ "type": "Feature", "properties": { "ID": 348, "Produkt": "Sportaußenanlagen an Schulen", "Teilprodukt": "Förderschulen", "Name": "Sportfläche Albert-Schweitzer-", "Plz": 48145.0, "Strname": "Manfred-von-Richthofen-Straße", "Hsnr": 49.0, "Rechtswert": 3407730.0, "Hochwert": 5759186.0 }, "geometry": { "type": "Point", "coordinates": [ 7.656613228838913, 51.958939897323873 ] } },
{ "type": "Feature", "properties": { "ID": 349, "Produkt": "Turn- und Sporthallen", "Teilprodukt": "Dreifachhallen", "Name": "Sporthalle Ost", "Plz": 48145.0, "Strname": "Manfred-von-Richthofen-Straße", "Hsnr": 56.0, "Rechtswert": 3407768.0, "Hochwert": 5759133.0 }, "geometry": { "type": "Point", "coordinates": [ 7.657180097351453, 51.958469992255118 ] } },
{ "type": "Feature", "properties": { "ID": 350, "Produkt": "Bezirkssportanlage", "Teilprodukt": "überlassen", "Name": "Sportanlage von-Richthofen-Straße", "Plz": 48145.0, "Strname": "Manfred-von-Richthofen-Straße", "Hsnr": 56.0, "Rechtswert": 3407768.0, "Hochwert": 5759133.0 }, "geometry": { "type": "Point", "coordinates": [ 7.657180097351453, 51.958469992255118 ] } },
{ "type": "Feature", "properties": { "ID": 351, "Produkt": "Turn- und Sporthallen", "Teilprodukt": "Zweifachhalle", "Name": "Fürstin-von-Gallitzin-", "Plz": 48145.0, "Strname": "Manfred-von-Richthofen-Straße", "Hsnr": 60.0, "Rechtswert": 3407901.0, "Hochwert": 5759093.0 }, "geometry": { "type": "Point", "coordinates": [ 7.659125077728187, 51.958132618903086 ] } },
{ "type": "Feature", "properties": { "ID": 352, "Produkt": "Turn- und Sporthallen", "Teilprodukt": "Einfachhallen", "Name": "Overbergschule", "Plz": 48145.0, "Strname": "Margaretenstraße", "Hsnr": 6.0, "Rechtswert": 3406917.0, "Hochwert": 5758927.0 }, "geometry": { "type": "Point", "coordinates": [ 7.64485950919599, 51.956477406112178 ] } },
{ "type": "Feature", "properties": { "ID": 353, "Produkt": "Sportaußenanlagen an Schulen", "Teilprodukt": "Grundschulen", "Name": "Sportfläche Overbergschule", "Plz": 48145.0, "Strname": "Margaretenstraße", "Hsnr": 6.0, "Rechtswert": 3406917.0, "Hochwert": 5758927.0 }, "geometry": { "type": "Point", "coordinates": [ 7.64485950919599, 51.956477406112178 ] } },
{ "type": "Feature", "properties": { "ID": 354, "Produkt": "Bezirkssportanlage", "Teilprodukt": "überlassen", "Name": "Sportanlage Mauritz-Lindenweg", "Plz": 48145.0, "Strname": "Mauritz-Lindenweg", "Hsnr": 93.0, "Rechtswert": 3407929.0, "Hochwert": 5759326.0 }, "geometry": { "type": "Point", "coordinates": [ 7.659469903013736, 51.960230755520612 ] } },
{ "type": "Feature", "properties": { "ID": 355, "Produkt": "Sondersportanlagen", "Teilprodukt": "Speckbrettanlagen", "Name": "Sportanlage Mauritz-Lindenweg", "Plz": 48145.0, "Strname": "Mauritz-Lindenweg", "Hsnr": 93.0, "Rechtswert": 3407929.0, "Hochwert": 5759326.0 }, "geometry": { "type": "Point", "coordinates": [ 7.659469903013736, 51.960230755520612 ] } },
{ "type": "Feature", "properties": { "ID": 356, "Produkt": "Sondersportanlagen", "Teilprodukt": "Beachvolleyballanlagen", "Name": "Sportzentrum Ost", "Plz": 48145.0, "Strname": "Mauritz-Lindenweg", "Hsnr": 93.0, "Rechtswert": 3407929.0, "Hochwert": 5759326.0 }, "geometry": { "type": "Point", "coordinates": [ 7.659469903013736, 51.960230755520612 ] } },
{ "type": "Feature", "properties": { "ID": 357, "Produkt": "Turn- und Sporthallen", "Teilprodukt": "Gymnastikräume", "Name": "SSB Gy", "Plz": 48145.0, "Strname": "Mauritz-Lindenweg", "Hsnr": 95.0, "Rechtswert": 3407930.0, "Hochwert": 5759303.0 }, "geometry": { "type": "Point", "coordinates": [ 7.659490605500256, 51.96002426614595 ] } },
{ "type": "Feature", "properties": { "ID": 358, "Produkt": "Turn- und Sporthallen", "Teilprodukt": "Einfachhallen", "Name": "Wilhelm-Emanuel-von-Ketteler-Berufskolleg", "Plz": 48145.0, "Strname": "Mindener Straße", "Hsnr": 11.0, "Rechtswert": 3407210.0, "Hochwert": 5758955.0 }, "geometry": { "type": "Point", "coordinates": [ 7.64911295376092, 51.956777911861721 ] } },
{ "type": "Feature", "properties": { "ID": 359, "Produkt": "Bezirkssportanlage", "Teilprodukt": "überlassen", "Name": "Sportanlage Hiltrup-Ost", "Plz": 48165.0, "Strname": "Osttor", "Hsnr": 85.0, "Rechtswert": 3408461.0, "Hochwert": 5753375.0 }, "geometry": { "type": "Point", "coordinates": [ 7.668789121185986, 51.906848411553796 ] } },
{ "type": "Feature", "properties": { "ID": 360, "Produkt": "Sondersportanlagen", "Teilprodukt": "Bouleanlagen", "Name": "Sportanlage Hiltrup-Ost", "Plz": 48165.0, "Strname": "Osttor", "Hsnr": 85.0, "Rechtswert": 3408461.0, "Hochwert": 5753375.0 }, "geometry": { "type": "Point", "coordinates": [ 7.668789121185986, 51.906848411553796 ] } },
{ "type": "Feature", "properties": { "ID": 361, "Produkt": "Sondersportanlagen", "Teilprodukt": "Speckbrettanlagen", "Name": "Sportanlage Hiltrup-Ost", "Plz": 48165.0, "Strname": "Osttor", "Hsnr": 85.0, "Rechtswert": 3408461.0, "Hochwert": 5753375.0 }, "geometry": { "type": "Point", "coordinates": [ 7.668789121185986, 51.906848411553796 ] } },
{ "type": "Feature", "properties": { "ID": 362, "Produkt": "Sondersportanlagen", "Teilprodukt": "Beachvolleyballanlagen", "Name": "Sportanlage Hiltrup-Ost", "Plz": 48165.0, "Strname": "Osttor", "Hsnr": 85.0, "Rechtswert": 3408461.0, "Hochwert": 5753375.0 }, "geometry": { "type": "Point", "coordinates": [ 7.668789121185986, 51.906848411553796 ] } },
{ "type": "Feature", "properties": { "ID": 363, "Produkt": "Turn- und Sporthallen", "Teilprodukt": "Einfachhallen", "Name": "Paul-Schneider-Schule Kinderhaus", "Plz": 48159.0, "Strname": "Pastorsesch", "Hsnr": 34.0, "Rechtswert": 3404774.0, "Hochwert": 5763658.0 }, "geometry": { "type": "Point", "coordinates": [ 7.612383446450718, 51.998621929793501 ] } },
{ "type": "Feature", "properties": { "ID": 364, "Produkt": "Bezirkssportanlage", "Teilprodukt": "überlassen", "Name": "Sportanlage Pleistermühlenweg", "Plz": 48155.0, "Strname": "Pleistermühlenweg", "Hsnr": 119.0, "Rechtswert": 3409708.0, "Hochwert": 5759599.0 }, "geometry": { "type": "Point", "coordinates": [ 7.685272068413838, 51.96297521362316 ] } },
{ "type": "Feature", "properties": { "ID": 365, "Produkt": "Sportaußenanlagen an Schulen", "Teilprodukt": "Förderschulen", "Name": "Sportfläche Erich-Kästner-", "Plz": 48145.0, "Strname": "Pötterhoek", "Hsnr": 45.0, "Rechtswert": 3407555.0, "Hochwert": 5760802.0 }, "geometry": { "type": "Point", "coordinates": [ 7.653633497915628, 51.973430554069679 ] } },
{ "type": "Feature", "properties": { "ID": 366, "Produkt": "Sportaußenanlagen an Schulen", "Teilprodukt": "Grundschulen", "Name": "Sportfläche Pötterhoekschule", "Plz": 48145.0, "Strname": "Pötterhoek", "Hsnr": 49.0, "Rechtswert": 3407575.0, "Hochwert": 5760700.0 }, "geometry": { "type": "Point", "coordinates": [ 7.653951899082173, 51.972517412589866 ] } },
{ "type": "Feature", "properties": { "ID": 367, "Produkt": "Turn- und Sporthallen", "Teilprodukt": "Einfachhallen", "Name": "Wilhelm-Hittorf-Gymnasium", "Plz": 48151.0, "Strname": "Prinz-Eugen-Straße", "Hsnr": 27.0, "Rechtswert": 3405133.0, "Hochwert": 5757915.0 }, "geometry": { "type": "Point", "coordinates": [ 7.619194737898525, 51.947083501376945 ] } },
{ "type": "Feature", "properties": { "ID": 368, "Produkt": "Turn- und Sporthallen", "Teilprodukt": "Gymnastikräume", "Name": "Wilhelm-Hittorf-Gymnasium", "Plz": 48151.0, "Strname": "Prinz-Eugen-Straße", "Hsnr": 27.0, "Rechtswert": 3405133.0, "Hochwert": 5757915.0 }, "geometry": { "type": "Point", "coordinates": [ 7.619194737898525, 51.947083501376945 ] } },
{ "type": "Feature", "properties": { "ID": 369, "Produkt": "Turn- und Sporthallen", "Teilprodukt": "Zweifachhalle", "Name": "Wilhelm-Hittorf-Gymnasium", "Plz": 48151.0, "Strname": "Prinz-Eugen-Straße", "Hsnr": 27.0, "Rechtswert": 3405133.0, "Hochwert": 5757915.0 }, "geometry": { "type": "Point", "coordinates": [ 7.619194737898525, 51.947083501376945 ] } },
{ "type": "Feature", "properties": { "ID": 370, "Produkt": "Sportaußenanlagen an Schulen", "Teilprodukt": "Gymnasien\/B.-Kollegs", "Name": "Sportfläche Hittorf-Gymnasium", "Plz": 48151.0, "Strname": "Prinz-Eugen-Straße", "Hsnr": 27.0, "Rechtswert": 3405133.0, "Hochwert": 5757915.0 }, "geometry": { "type": "Point", "coordinates": [ 7.619194737898525, 51.947083501376945 ] } },
{ "type": "Feature", "properties": { "ID": 371, "Produkt": "Turn- und Sporthallen", "Teilprodukt": "Einfachhallen", "Name": "Brüder-Grimm-Sporthalle", "Plz": 48153.0, "Strname": "Scheibenstraße", "Hsnr": 114.0, "Rechtswert": 3405683.0, "Hochwert": 5756933.0 }, "geometry": { "type": "Point", "coordinates": [ 7.627460541736788, 51.938353776282653 ] } },
{ "type": "Feature", "properties": { "ID": 372, "Produkt": "Sportaußenanlagen an Schulen", "Teilprodukt": "Grundschulen", "Name": "Sportfläche Peter-Wust-Schule, Am Schürbusch", "Plz": 48163.0, "Strname": "Schürbusch", "Hsnr": 45.0, "Rechtswert": 3402690.0, "Hochwert": 5756094.0 }, "geometry": { "type": "Point", "coordinates": [ 7.584190000400369, 51.930300644119924 ] } },
{ "type": "Feature", "properties": { "ID": 373, "Produkt": "Bezirkssportanlage", "Teilprodukt": "überlassen", "Name": "Sportanlage Schwarzer Kamp", "Plz": 48163.0, "Strname": "Schwarzer Kamp", "Hsnr": 41.0, "Rechtswert": 3401715.0, "Hochwert": 5755793.0 }, "geometry": { "type": "Point", "coordinates": [ 7.570105489572239, 51.927425079622445 ] } },
{ "type": "Feature", "properties": { "ID": 374, "Produkt": "Turn- und Sporthallen", "Teilprodukt": "Einfachhallen", "Name": "Johann-Conrad-Schlaun-Gymnasium,", "Plz": 48143.0, "Strname": "Sonnenstraße", "Hsnr": 18.0, "Rechtswert": 3406157.0, "Hochwert": 5759673.0 }, "geometry": { "type": "Point", "coordinates": [ 7.633603553227378, 51.963052512480353 ] } },
{ "type": "Feature", "properties": { "ID": 375, "Produkt": "Turn- und Sporthallen", "Teilprodukt": "Einfachhallen", "Name": "Karl-Wagenfeld-Realschule, alte Halle", "Plz": 48153.0, "Strname": "Spichernstraße", "Hsnr": 17.0, "Rechtswert": 3405388.0, "Hochwert": 5756541.0 }, "geometry": { "type": "Point", "coordinates": [ 7.62327994173343, 51.934781658810081 ] } },
{ "type": "Feature", "properties": { "ID": 376, "Produkt": "Turn- und Sporthallen", "Teilprodukt": "Einfachhallen", "Name": "Karl-Wagenfeld-Realschule, neue Halle", "Plz": 48153.0, "Strname": "Spichernstraße", "Hsnr": 17.0, "Rechtswert": 3405388.0, "Hochwert": 5756541.0 }, "geometry": { "type": "Point", "coordinates": [ 7.62327994173343, 51.934781658810081 ] } },
{ "type": "Feature", "properties": { "ID": 377, "Produkt": "Sportaußenanlagen an Schulen", "Teilprodukt": "Haupt-\/Realschulen", "Name": "Sportfläche Karl-Wagenfeld-Realschule", "Plz": 48153.0, "Strname": "Spichernstraße", "Hsnr": 17.0, "Rechtswert": 3405388.0, "Hochwert": 5756541.0 }, "geometry": { "type": "Point", "coordinates": [ 7.62327994173343, 51.934781658810081 ] } },
{ "type": "Feature", "properties": { "ID": 378, "Produkt": "Turn- und Sporthallen", "Teilprodukt": "Einfachhallen", "Name": "Martinischule", "Plz": 48143.0, "Strname": "Stiftsherrenstraße", "Hsnr": 40.0, "Rechtswert": 3406007.0, "Hochwert": 5759945.0 }, "geometry": { "type": "Point", "coordinates": [ 7.631347480011996, 51.965471082346546 ] } },
{ "type": "Feature", "properties": { "ID": 379, "Produkt": "Sportaußenanlagen an Schulen", "Teilprodukt": "Grundschulen", "Name": "Sportfläche Martinischule", "Plz": 48143.0, "Strname": "Stiftsherrenstraße", "Hsnr": 40.0, "Rechtswert": 3406007.0, "Hochwert": 5759945.0 }, "geometry": { "type": "Point", "coordinates": [ 7.631347480011996, 51.965471082346546 ] } },
{ "type": "Feature", "properties": { "ID": 380, "Produkt": "Turn- und Sporthallen", "Teilprodukt": "Einfachhallen", "Name": "Mauritzschule", "Plz": 48145.0, "Strname": "Stiftsstraße", "Hsnr": 17.0, "Rechtswert": 3407253.0, "Hochwert": 5759735.0 }, "geometry": { "type": "Point", "coordinates": [ 7.649527900104064, 51.963793345229121 ] } },
{ "type": "Feature", "properties": { "ID": 381, "Produkt": "Sportaußenanlagen an Schulen", "Teilprodukt": "Grundschulen", "Name": "Sportfläche Mauritzschule", "Plz": 48145.0, "Strname": "Stiftsstraße", "Hsnr": 17.0, "Rechtswert": 3407253.0, "Hochwert": 5759735.0 }, "geometry": { "type": "Point", "coordinates": [ 7.649527900104064, 51.963793345229121 ] } },
{ "type": "Feature", "properties": { "ID": 382, "Produkt": "Turn- und Sporthallen", "Teilprodukt": "Einfachhallen", "Name": "Thomas-Morus-", "Plz": 48147.0, "Strname": "Thomas-Morus-Weg", "Hsnr": 5.0, "Rechtswert": 3406956.0, "Hochwert": 5760930.0 }, "geometry": { "type": "Point", "coordinates": [ 7.644884501463101, 51.974480746062852 ] } },
{ "type": "Feature", "properties": { "ID": 383, "Produkt": "Sportaußenanlagen an Schulen", "Teilprodukt": "Grundschulen", "Name": "Sportfläche Thomas-Morus-", "Plz": 48147.0, "Strname": "Thomas-Morus-Weg", "Hsnr": 5.0, "Rechtswert": 3406956.0, "Hochwert": 5760930.0 }, "geometry": { "type": "Point", "coordinates": [ 7.644884501463101, 51.974480746062852 ] } },
{ "type": "Feature", "properties": { "ID": 384, "Produkt": "Turn- und Sporthallen", "Teilprodukt": "Dreifachhallen", "Name": "Schulzentrum Roxel", "Plz": 48161.0, "Strname": "Tilbecker Straße", "Hsnr": 24.0, "Rechtswert": 3398979.0, "Hochwert": 5758848.0 }, "geometry": { "type": "Point", "coordinates": [ 7.529447832230787, 51.954383427703043 ] } },
{ "type": "Feature", "properties": { "ID": 385, "Produkt": "Sportaußenanlagen an Schulen", "Teilprodukt": "Schulzentren", "Name": "Sportfläche Schulzentrum Roxel", "Plz": 48161.0, "Strname": "Tilbecker Straße", "Hsnr": 24.0, "Rechtswert": 3398979.0, "Hochwert": 5758848.0 }, "geometry": { "type": "Point", "coordinates": [ 7.529447832230787, 51.954383427703043 ] } },
{ "type": "Feature", "properties": { "ID": 386, "Produkt": "Bezirkssportanlage", "Teilprodukt": "nicht überlassen", "Name": "Sportzentrum Roxel", "Plz": 48161.0, "Strname": "Tilbecker Straße", "Hsnr": 34.0, "Rechtswert": 3398839.0, "Hochwert": 5758905.0 }, "geometry": { "type": "Point", "coordinates": [ 7.527395296549042, 51.954870116516496 ] } },
{ "type": "Feature", "properties": { "ID": 387, "Produkt": "Sondersportanlagen", "Teilprodukt": "Bouleanlagen", "Name": "Sportzentrum Roxel", "Plz": 48161.0, "Strname": "Tilbecker Straße", "Hsnr": 34.0, "Rechtswert": 3398839.0, "Hochwert": 5758905.0 }, "geometry": { "type": "Point", "coordinates": [ 7.527395296549042, 51.954870116516496 ] } },
{ "type": "Feature", "properties": { "ID": 388, "Produkt": "Sondersportanlagen", "Teilprodukt": "Speckbrettanlagen", "Name": "Alter Sportplatz Roxel", "Plz": 48161.0, "Strname": "Tilbecker Straße", "Hsnr": 34.0, "Rechtswert": 3398839.0, "Hochwert": 5758905.0 }, "geometry": { "type": "Point", "coordinates": [ 7.527395296549042, 51.954870116516496 ] } },
{ "type": "Feature", "properties": { "ID": 389, "Produkt": "Sondersportanlagen", "Teilprodukt": "Beachvolleyballanlagen", "Name": "Hallenbad Roxel", "Plz": 48161.0, "Strname": "Tilbecker Straße", "Hsnr": 36.0, "Rechtswert": 3398779.0, "Hochwert": 5758874.0 }, "geometry": { "type": "Point", "coordinates": [ 7.526531936513234, 51.954580688741125 ] } },
{ "type": "Feature", "properties": { "ID": 390, "Produkt": "Sportaußenanlagen an Schulen", "Teilprodukt": "Grundschulen", "Name": "Sportfläche Wartburg", "Plz": 48161.0, "Strname": "Toppheideweg", "Hsnr": 91.0, "Rechtswert": 3401636.0, "Hochwert": 5761018.0 }, "geometry": { "type": "Point", "coordinates": [ 7.567463519008388, 51.974356004177842 ] } },
{ "type": "Feature", "properties": { "ID": 391, "Produkt": "Turn- und Sporthallen", "Teilprodukt": "Dreifachhallen", "Name": "Pascal-Gymnasium", "Plz": 48147.0, "Strname": "Uppenkampstiege", "Hsnr": 17.0, "Rechtswert": 3405666.0, "Hochwert": 5761119.0 }, "geometry": { "type": "Point", "coordinates": [ 7.626065204282686, 51.975961588565625 ] } },
{ "type": "Feature", "properties": { "ID": 392, "Produkt": "Sondersportanlagen", "Teilprodukt": "Beachvolleyballanlagen", "Name": "Pascal-Gymnasium", "Plz": 48147.0, "Strname": "Uppenkampstiege", "Hsnr": 17.0, "Rechtswert": 3405666.0, "Hochwert": 5761119.0 }, "geometry": { "type": "Point", "coordinates": [ 7.626065204282686, 51.975961588565625 ] } },
{ "type": "Feature", "properties": { "ID": 393, "Produkt": "Sportaußenanlagen an Schulen", "Teilprodukt": "Gymnasien\/B.-Kollegs", "Name": "Sportfläche Pascal-Gymnasium", "Plz": 48147.0, "Strname": "Uppenkampstiege", "Hsnr": 17.0, "Rechtswert": 3405666.0, "Hochwert": 5761119.0 }, "geometry": { "type": "Point", "coordinates": [ 7.626065204282686, 51.975961588565625 ] } },
{ "type": "Feature", "properties": { "ID": 394, "Produkt": "Turn- und Sporthallen", "Teilprodukt": "Einfachhallen", "Name": "Idaschule", "Plz": 48167.0, "Strname": "Vörnste Esch", "Hsnr": 19.0, "Rechtswert": 3408797.0, "Hochwert": 5756176.0 }, "geometry": { "type": "Point", "coordinates": [ 7.672928922694899, 51.932070761493144 ] } },
{ "type": "Feature", "properties": { "ID": 395, "Produkt": "Sportaußenanlagen an Schulen", "Teilprodukt": "Grundschulen", "Name": "Sportfläche Idaschule", "Plz": 48167.0, "Strname": "Vörnste Esch", "Hsnr": 19.0, "Rechtswert": 3408797.0, "Hochwert": 5756176.0 }, "geometry": { "type": "Point", "coordinates": [ 7.672928922694899, 51.932070761493144 ] } },
{ "type": "Feature", "properties": { "ID": 396, "Produkt": "Turn- und Sporthallen", "Teilprodukt": "Einfachhallen", "Name": "Johannisschule", "Plz": 48151.0, "Strname": "Vogel-von-Falkenstein-Straße", "Hsnr": 4.0, "Rechtswert": 3405354.0, "Hochwert": 5758514.0 }, "geometry": { "type": "Point", "coordinates": [ 7.622243181011612, 51.952503053428458 ] } },
{ "type": "Feature", "properties": { "ID": 397, "Produkt": "Sportaußenanlagen an Schulen", "Teilprodukt": "Grundschulen", "Name": "Sportfläche Johannisschule", "Plz": 48151.0, "Strname": "Vogel-von-Falkenstein-Straße", "Hsnr": 4.0, "Rechtswert": 3405354.0, "Hochwert": 5758514.0 }, "geometry": { "type": "Point", "coordinates": [ 7.622243181011612, 51.952503053428458 ] } },
{ "type": "Feature", "properties": { "ID": 398, "Produkt": "Turn- und Sporthallen", "Teilprodukt": "Einfachhallen", "Name": "Wartburgschule", "Plz": 48149.0, "Strname": "Von-Esmarch-Straße", "Hsnr": 15.0, "Rechtswert": 3403594.0, "Hochwert": 5759846.0 }, "geometry": { "type": "Point", "coordinates": [ 7.596277453630589, 51.964168714652466 ] } },
{ "type": "Feature", "properties": { "ID": 399, "Produkt": "Sportaußenanlagen an Schulen", "Teilprodukt": "Haupt-\/Realschulen", "Name": "Sportfläche Wartburgschule", "Plz": 48149.0, "Strname": "Von-Esmarch-Straße", "Hsnr": 15.0, "Rechtswert": 3403594.0, "Hochwert": 5759846.0 }, "geometry": { "type": "Point", "coordinates": [ 7.596277453630589, 51.964168714652466 ] } },
{ "type": "Feature", "properties": { "ID": 400, "Produkt": "Turn- und Sporthallen", "Teilprodukt": "Zweifachhalle", "Name": "Schulzentrum Wolbeck", "Plz": 48167.0, "Strname": "Von-Holte-Straße", "Hsnr": 56.0, "Rechtswert": 3411946.0, "Hochwert": 5754161.0 }, "geometry": { "type": "Point", "coordinates": [ 7.719214914114383, 51.914472220985353 ] } },
{ "type": "Feature", "properties": { "ID": 401, "Produkt": "Turn- und Sporthallen", "Teilprodukt": "Dreifachhallen", "Name": "Schulzentrum Wolbeck", "Plz": 48167.0, "Strname": "Von-Holte-Straße", "Hsnr": 56.0, "Rechtswert": 3411946.0, "Hochwert": 5754161.0 }, "geometry": { "type": "Point", "coordinates": [ 7.719214914114383, 51.914472220985353 ] } },
{ "type": "Feature", "properties": { "ID": 402, "Produkt": "Sportaußenanlagen an Schulen", "Teilprodukt": "Schulzentren", "Name": "Sportfläche Schulzetnrum Wolbeck", "Plz": 48167.0, "Strname": "Von-Holte-Straße", "Hsnr": 56.0, "Rechtswert": 3411946.0, "Hochwert": 5754161.0 }, "geometry": { "type": "Point", "coordinates": [ 7.719214914114383, 51.914472220985353 ] } },
{ "type": "Feature", "properties": { "ID": 403, "Produkt": "Turn- und Sporthallen", "Teilprodukt": "Dreifachhallen", "Name": "Schulzentrum Kinderhaus", "Plz": 48159.0, "Strname": "Von-Humboldt-Straße", "Hsnr": 14.0, "Rechtswert": 3404181.0, "Hochwert": 5763628.0 }, "geometry": { "type": "Point", "coordinates": [ 7.603760090094616, 51.998250458069364 ] } },
{ "type": "Feature", "properties": { "ID": 404, "Produkt": "Turn- und Sporthallen", "Teilprodukt": "Zweifachhalle", "Name": "Schulzentrum Kinderhaus", "Plz": 48159.0, "Strname": "Von-Humboldt-Straße", "Hsnr": 14.0, "Rechtswert": 3404181.0, "Hochwert": 5763628.0 }, "geometry": { "type": "Point", "coordinates": [ 7.603760090094616, 51.998250458069364 ] } },
{ "type": "Feature", "properties": { "ID": 405, "Produkt": "Bezirkssportanlage", "Teilprodukt": "überlassen", "Name": "Sportanlage Wangeroogeweg", "Plz": 48159.0, "Strname": "Wangeroogeweg", "Hsnr": 18.0, "Rechtswert": 3405113.0, "Hochwert": 5763493.0 }, "geometry": { "type": "Point", "coordinates": [ 7.617363601465383, 51.997197427331699 ] } },
{ "type": "Feature", "properties": { "ID": 406, "Produkt": "Sondersportanlagen", "Teilprodukt": "Bouleanlagen", "Name": "Sportanlage Wangeroogeweg", "Plz": 48159.0, "Strname": "Wangeroogeweg", "Hsnr": 18.0, "Rechtswert": 3405113.0, "Hochwert": 5763493.0 }, "geometry": { "type": "Point", "coordinates": [ 7.617363601465383, 51.997197427331699 ] } },
{ "type": "Feature", "properties": { "ID": 407, "Produkt": "Sondersportanlagen", "Teilprodukt": "Beachvolleyballanlagen", "Name": "Sportanlage Wangeroogeweg", "Plz": 48159.0, "Strname": "Wangeroogeweg", "Hsnr": 18.0, "Rechtswert": 3405113.0, "Hochwert": 5763493.0 }, "geometry": { "type": "Point", "coordinates": [ 7.617363601465383, 51.997197427331699 ] } },
{ "type": "Feature", "properties": { "ID": 408, "Produkt": "Turn- und Sporthallen", "Teilprodukt": "Zweifachhalle", "Name": "Schulzentrum Hiltrup", "Plz": 48165.0, "Strname": "Westfalenstraße", "Hsnr": 201.0, "Rechtswert": 3406490.0, "Hochwert": 5752730.0 }, "geometry": { "type": "Point", "coordinates": [ 7.640332000679758, 51.900725983382621 ] } },
{ "type": "Feature", "properties": { "ID": 409, "Produkt": "Turn- und Sporthallen", "Teilprodukt": "Dreifachhallen", "Name": "Schulzentrum Hiltrup", "Plz": 48165.0, "Strname": "Westfalenstraße", "Hsnr": 201.0, "Rechtswert": 3406490.0, "Hochwert": 5752730.0 }, "geometry": { "type": "Point", "coordinates": [ 7.640332000679758, 51.900725983382621 ] } },
{ "type": "Feature", "properties": { "ID": 410, "Produkt": "Bezirkssportanlage", "Teilprodukt": "nicht überlassen", "Name": "Sportanlage Hiltrup-Süd", "Plz": 48165.0, "Strname": "Westfalenstraße", "Hsnr": 240.0, "Rechtswert": 3406510.0, "Hochwert": 5752347.0 }, "geometry": { "type": "Point", "coordinates": [ 7.640726263058182, 51.89728807273351 ] } },
{ "type": "Feature", "properties": { "ID": 411, "Produkt": "Sportaußenanlagen an Schulen", "Teilprodukt": "Grundschulen", "Name": "Sportfläche Grundschule Lövelingloh", "Plz": 48163.0, "Strname": "Wiedaustraße", "Hsnr": 114.0, "Rechtswert": 3402174.0, "Hochwert": 5752082.0 }, "geometry": { "type": "Point", "coordinates": [ 7.577828832614077, 51.894163408687298 ] } },
{ "type": "Feature", "properties": { "ID": 412, "Produkt": "Turn- und Sporthallen", "Teilprodukt": "Einfachhallen", "Name": "Abendgymnasium", "Plz": 48147.0, "Strname": "Wienburgstraße", "Hsnr": 52.0, "Rechtswert": 3405514.0, "Hochwert": 5761089.0 }, "geometry": { "type": "Point", "coordinates": [ 7.623862034953264, 51.97566624137405 ] } },
{ "type": "Feature", "properties": { "ID": 413, "Produkt": "Turn- und Sporthallen", "Teilprodukt": "Einfachhallen", "Name": "Davertschule Amelsbüren", "Plz": 48163.0, "Strname": "Zum Häpper", "Hsnr": 10.0, "Rechtswert": 3404182.0, "Hochwert": 5751020.0 }, "geometry": { "type": "Point", "coordinates": [ 7.607284287700363, 51.884969979120932 ] } },
{ "type": "Feature", "properties": { "ID": 414, "Produkt": "Turn- und Sporthallen", "Teilprodukt": "Gymnastikräume", "Name": "Davertschule Amelsbüren", "Plz": 48163.0, "Strname": "Zum Häpper", "Hsnr": 10.0, "Rechtswert": 3404182.0, "Hochwert": 5751020.0 }, "geometry": { "type": "Point", "coordinates": [ 7.607284287700363, 51.884969979120932 ] } },
{ "type": "Feature", "properties": { "ID": 415, "Produkt": "Bezirkssportanlage", "Teilprodukt": "überlassen", "Name": "Sportanlage Zum Häpper", "Plz": 48163.0, "Strname": "Zum Häpper", "Hsnr": 24.0, "Rechtswert": 3404388.0, "Hochwert": 5751146.0 }, "geometry": { "type": "Point", "coordinates": [ 7.610240382840253, 51.886137420906451 ] } },
{ "type": "Feature", "properties": { "ID": 416, "Produkt": "Sondersportanlagen", "Teilprodukt": "Bouleanlagen", "Name": "Sportanlage Zum Häpper", "Plz": 48163.0, "Strname": "Zum Häpper", "Hsnr": 24.0, "Rechtswert": 3404388.0, "Hochwert": 5751146.0 }, "geometry": { "type": "Point", "coordinates": [ 7.610240382840253, 51.886137420906451 ] } },
{ "type": "Feature", "properties": { "ID": 417, "Produkt": "Sondersportanlagen", "Teilprodukt": "Beachvolleyballanlagen", "Name": "Sportanlage Amelsbüren", "Plz": 48163.0, "Strname": "Zum Häpper", "Hsnr": 24.0, "Rechtswert": 3404388.0, "Hochwert": 5751146.0 }, "geometry": { "type": "Point", "coordinates": [ 7.610240382840253, 51.886137420906451 ] } },
{ "type": "Feature", "properties": { "ID": 418, "Produkt": "Sondersportanlagen", "Teilprodukt": "Beachvolleyballanlagen", "Name": "Freibad Hiltrup", "Plz": 48165.0, "Strname": "Zum Hiltruper See", "Hsnr": 171.0, "Rechtswert": 3407608.0, "Hochwert": 5751422.0 }, "geometry": { "type": "Point", "coordinates": [ 7.65692076383267, 51.889159833139963 ] } },
{ "type": "Feature", "properties": { "ID": 419, "Produkt": "", "Teilprodukt": "", "Name": "Sportanlage Gievenbecker Reihe", "Plz": 48161.0, "Strname": "Diekmannstraße\/ Gievenbecker Reihe", "Hsnr": 140.0, "Rechtswert": 3401616.0, "Hochwert": 5759945.0 }, "geometry": { "type": "Point", "coordinates": [ 7.56747973703779, 51.964711957122127 ] } },
{ "type": "Feature", "properties": { "ID": 420, "Produkt": "Sondersportanlagen", "Teilprodukt": "Beachvolleyballanlagen", "Name": "Sportanlage Gievenbecker Reihe", "Plz": 48161.0, "Strname": "Diekmannstraße\/ Gievenbecker Reihe", "Hsnr": 140.0, "Rechtswert": 3401616.0, "Hochwert": 5759945.0 }, "geometry": { "type": "Point", "coordinates": [ 7.56747973703779, 51.964711957122127 ] } },
{ "type": "Feature", "properties": { "ID": 421, "Produkt": "", "Teilprodukt": "", "Name": "Sportanlage Wienburgstraße", "Plz": 48163.0, "Strname": "Wienburgstraße", "Hsnr": 141.0, "Rechtswert": 3405399.0, "Hochwert": 5761595.0 }, "geometry": { "type": "Point", "coordinates": [ 7.622049576942077, 51.98019301541003 ] } },
{ "type": "Feature", "properties": { "ID": 422, "Produkt": "", "Teilprodukt": "", "Name": "Sportzentrum Kinderhaus", "Plz": 48159.0, "Strname": "Große Wiese", "Hsnr": 30.0, "Rechtswert": 3404587.0, "Hochwert": 5763917.0 }, "geometry": { "type": "Point", "coordinates": [ 7.609589429940937, 52.00091690255389 ] } },
{ "type": "Feature", "properties": { "ID": 423, "Produkt": "Sondersportanlage", "Teilprodukt": "Trimmanlagen", "Name": "Sportzentrum Kinderhaus", "Plz": 48159.0, "Strname": "Große Wiese", "Hsnr": 30.0, "Rechtswert": 3404587.0, "Hochwert": 5763917.0 }, "geometry": { "type": "Point", "coordinates": [ 7.609589429940937, 52.00091690255389 ] } },
{ "type": "Feature", "properties": { "ID": 424, "Produkt": "Sondersportanlage", "Teilprodukt": "Speckbrettanlagen", "Name": "Sportzentrum Kinderhaus", "Plz": 48159.0, "Strname": "Große Wiese", "Hsnr": 30.0, "Rechtswert": 3404587.0, "Hochwert": 5763917.0 }, "geometry": { "type": "Point", "coordinates": [ 7.609589429940937, 52.00091690255389 ] } },
{ "type": "Feature", "properties": { "ID": 425, "Produkt": "", "Teilprodukt": "", "Name": "Sportanlage Robert-Bosch-Straße", "Plz": 48153.0, "Strname": "Robert-Bosch-Straße", "Hsnr": 1, "Rechtswert": 3405832.0, "Hochwert": 5756388.0 }, "geometry": { "type": "Point", "coordinates": [ 7.629775553384584, 51.933482209269194 ] } },
{ "type": "Feature", "properties": { "ID": 426, "Produkt": "Sondersportanlagen", "Teilprodukt": "Bouleanlagen", "Name": "", "Plz": 48157.0, "Strname": "Dyckburgstraße", "Hsnr": 468.0, "Rechtswert": 3410740.0, "Hochwert": 5763710.0 }, "geometry": { "type": "Point", "coordinates": [ 7.699214015323276, 52.000079509114464 ] } },
{ "type": "Feature", "properties": { "ID": 427, "Produkt": "Sondersportanlagen", "Teilprodukt": "Speckbrettanlagen", "Name": "Sportanlage Concordenstraße", "Plz": 48163.0, "Strname": "Hohe Geist", "Hsnr": 7.0, "Rechtswert": 3398945.0, "Hochwert": 5755412.0 }, "geometry": { "type": "Point", "coordinates": [ 7.529961986954766, 51.923506413223059 ] } },
{ "type": "Feature", "properties": { "ID": 428, "Produkt": "Sondersportanlagen", "Teilprodukt": "Beachvolleyballanlagen", "Name": "Sportanlage Concordenstraße", "Plz": 48163.0, "Strname": "Hohe Geist", "Hsnr": 7.0, "Rechtswert": 3398945.0, "Hochwert": 5755412.0 }, "geometry": { "type": "Point", "coordinates": [ 7.529961986954766, 51.923506413223059 ] } },
{ "type": "Feature", "properties": { "ID": 429, "Produkt": "Sondersportanlage", "Teilprodukt": "Bouleanlagen", "Name": "Sportanlage von-Richthofen-Straße", "Plz": 48145.0, "Strname": "Manfred-von-Richthofen-Straße", "Hsnr": 56.0, "Rechtswert": 3407768.0, "Hochwert": 5759133.0 }, "geometry": { "type": "Point", "coordinates": [ 7.657180097351453, 51.958469992255118 ] } },
{ "type": "Feature", "properties": { "ID": 430, "Produkt": "Sondersportanlage", "Teilprodukt": "Bouleanlagen", "Name": "Sportanlage Pleistermühlenweg", "Plz": 48155.0, "Strname": "Pleistermühlenweg", "Hsnr": 119.0, "Rechtswert": 3409708.0, "Hochwert": 5759599.0 }, "geometry": { "type": "Point", "coordinates": [ 7.685272068413838, 51.96297521362316 ] } },
{ "type": "Feature", "properties": { "ID": 431, "Produkt": "Sondersportanlage", "Teilprodukt": "Bouleanlage", "Name": "Boccia-Bahn Dahlweg", "Plz": 48153.0, "Strname": "Dahlweg", "Hsnr": 45.0, "Rechtswert": 3405648.0, "Hochwert": 5757679.0 }, "geometry": { "type": "Point", "coordinates": [ 7.62674727637073, 51.945050583494101 ] } },
{ "type": "Feature", "properties": { "ID": 432, "Produkt": "Sondersportanlage", "Teilprodukt": "Beachvolleyballanlage", "Name": "Breite Linde", "Plz": 48157.0, "Strname": "Hoher Heckenweg", "Hsnr": 221.0, "Rechtswert": 3407088.0, "Hochwert": 5762233.0 }, "geometry": { "type": "Point", "coordinates": [ 7.646452400149629, 51.986210155773001 ] } },
{ "type": "Feature", "properties": { "ID": 433, "Produkt": "Sondersportanlage", "Teilprodukt": "Skateanlage", "Name": "Skateanlage an der Sporthalle Ost", "Plz": 48145.0, "Strname": "Manfred-von-Richthofen-Straße", "Hsnr": 56.0, "Rechtswert": 3407837.0, "Hochwert": 5759125.0 }, "geometry": { "type": "Point", "coordinates": [ 7.658185733322199, 51.958409543530479 ] } },
{ "type": "Feature", "properties": { "ID": 434, "Produkt": "Sondersportanlage", "Teilprodukt": "Trimmanlage", "Name": "Trimmanlage Hiltruper See", "Plz": 48165.0, "Strname": "Zum Hiltruper See", "Hsnr": 171.0, "Rechtswert": 3407115.0, "Hochwert": 5751102.0 }, "geometry": { "type": "Point", "coordinates": [ 7.649848028362196, 51.886202740693037 ] } }
]
}
